name;streetAddress;postalCode;addressLocality;addressRegion;addressCountry;geo_latitude;geo_longitude;url
Oberländer Schafskäsemanufaktur;Struth 20;07570;Harth-Pöllnitz;Sachsen;Deutschland;50.777560;11.951762;https://hofladen.info/hofladen/oberlander-schafskasemanufaktur
Gutshof Kraatz;Schloßstraße 7;17291;Nordwestuckermark;Brandenburg;Deutschland;53.390344;13.666446;https://hofladen.info/hofladen/gutshof-kraatz
Ökohof Engler;Serwester Dorfstraße 72;16230;Chorin;Brandenburg;Deutschland;52.929189;13.925075;https://hofladen.info/hofladen/okohof-engler
Honigmeisterei;Gartenstr. 13;78136;Schonach;Baden-Württemberg;Deutschland;48.140177;8.214982;https://hofladen.info/hofladen/honigmeisterei
Gut Darß;Am Wald 26;18375;Born am Darß;Mecklenburg-Vorpommern;Deutschland;54.387480;12.522090;https://hofladen.info/hofladen/gut-dar%C3%9F
Kartoffellandhof - Siethen;Ebereschenallee 4;14974 ;Ludwigsfelde ;Brandenburg;Deutschland;52.283243;13.212601;https://hofladen.info/hofladen/kartoffellandhof-siethen
Bienenprodukte Versand;Westerberg 3;83550;Emmering;Bayern;Deutschland;47.991877;12.045061;https://hofladen.info/hofladen/bienenprodukte-versand
Holzers Hofladen;Kirchheimer Str. 87;73269;Hochdorf;Baden-Württemberg;Deutschland;48.690280;9.457840;https://hofladen.info/hofladen/holzers-hofladen
Chilli Manufaktur Lüneburger Heide;Dannhorn 5a;29614;Soltau;Niedersachsen;Deutschland;52.957316;9.819601;https://hofladen.info/hofladen/chilli-manufaktur-luneburger-heide
Geflügelhof Ludwig;Kleinhegnach 18;71336;Waiblingen;Baden-Württemberg;Deutschland;48.846227;9.305434;https://hofladen.info/hofladen/geflugelhof-ludwig
Biohof Moll;Haunswieser Str. 9;86444;Affing;Bayern;Deutschland;48.461985;10.985805;https://hofladen.info/hofladen/biohof-moll
Landmarkt Wey;Wey 64 (direkt am Kreisverkehr);41363;Jüchen;Nordrhein-Westfalen;Deutschland;51.134413;6.503584;https://hofladen.info/hofladen/landmarkt-wey
Gemüsewerkstatt Grünschnabel;Schenkstraße 37 OT Cobstädt;99869;Drei Gleichen;Thüringen;Deutschland;50.922450;10.835930;https://hofladen.info/hofladen/gemusewerkstatt-grunschnabel
Frischmilchautomat am Edeka Malchow;Stauffenbergstraße 9;17213;Malchow;Mecklenburg-Vorpommern;Deutschland;53.478400;12.424350;https://hofladen.info/hofladen/frischmilchautomat-am-edeka-malchow
Stephan's Hofladen ;Kleiner Waldsee 1;39217 ;Schönebeck;Sachsen-Anhalt;Deutschland;52.063195;11.802628;https://hofladen.info/hofladen/stephan-s-hofladen
Seefelder Landmilch;Seefeld 31;23843;Bad Oldesloe;Schleswig-Holstein;Deutschland;53.849270;10.372910;https://hofladen.info/hofladen/seefelder-landmilch
Hofladen am Westerwald ;Ershäuserstraße 10;37308;Schimberg;Thüringen;Deutschland;51.285030;10.180178;https://hofladen.info/hofladen/hofladen-am-westerwald
Kirchhof;An der Kirche 6;36211;Alheim;Hessen;Deutschland;51.025880;9.635410;https://hofladen.info/hofladen/kirchhof
Paulbauernhof;Gausburg 47;83416;Saaldorf-Surheim;Bayern;Deutschland;47.892710;12.945100;https://hofladen.info/hofladen/paulbauernhof
Birkenhof;Birkenhof 1;57234;Wilnsdorf-Wilgersdorf;Nordrhein-Westfalen;Deutschland;50.826620;8.141890;https://hofladen.info/hofladen/birkenhof-2
Frischmilchautomat am Famila;F.-Wilhelm-Raiffeisen-Straße 1C;17192;Waren;Mecklenburg-Vorpommern;Deutschland;53.519900;12.715720;https://hofladen.info/hofladen/frischmilchautomat-am-famila
Dithmarscher Gänsemarkt;Hauptstraße 1;25693;Gudendorf;Schleswig-Holstein;Deutschland;54.018667;9.111539;https://hofladen.info/hofladen/dithmarscher-gansemarkt
Fischerei Alt-Schwerin;Wendorf 4;17214;Alt Schwerin;Mecklenburg-Vorpommern;Deutschland;53.496290;12.332170;https://hofladen.info/hofladen/fischerei-alt-schwerin
Klostergut Heiningen;Gutshof 1 Klostergut Heiningen;38312;Heiningen;Niedersachsen;Deutschland;52.072560;10.555830;https://hofladen.info/hofladen/klostergut-heiningen
Krewelshof Eifel;Krewelshof 1;53894;Mechernich;Nordrhein-Westfalen;Deutschland;50.641824;6.697666;https://hofladen.info/hofladen/krewelshof-eifel
Inselkäserei Usedom;Welzin 30;17406;Usedom;Mecklenburg-Vorpommern;Deutschland;53.852206;13.963268;https://hofladen.info/hofladen/inselkaserei-usedom
BERGHOF;Im Langenborn 8;63825;Schöllkrippen;Bayern;Deutschland;50.079000;9.240680;https://hofladen.info/hofladen/berghof
Hofladen Vaterstetten;Baldhamer Str. 99;85591 ;Vaterstetten;Bayern;Deutschland;48.112190;11.783053;https://hofladen.info/hofladen/hofladen-vaterstetten
Frischmilchautomat im E-Center Rostock;Rigaer Str. 5;18107;Rostock;Mecklenburg-Vorpommern;Deutschland;54.139210;12.059170;https://hofladen.info/hofladen/frischmilchautomat-im-e-center-rostock
Kösterhof;Hermann-Ehlers-Str. 8;26160; Bad Zwischenahn;Niedersachsen;Deutschland;53.167930;8.147210;https://hofladen.info/hofladen/kosterhof
Ziegenhof Peter;Niedertopfstedter Str. 1;99718;Greußen;Thüringen;Deutschland;51.233510;10.955410;https://hofladen.info/hofladen/ziegenhof-peter
Essig Schneider;Am Bahnhof 2;01774;Klingenberg;Sachsen;Deutschland;50.922694;13.500690;https://hofladen.info/hofladen/essig-schneider-3
Hofladen Jopp;Im Kornfeld 9;71696;Möglingen;Baden-Württemberg;Deutschland;48.867730;9.136200;https://hofladen.info/hofladen/hofladen-jopp
Biohof Lecker;Niederheining 1;83410;Laufen;Bayern;Deutschland;47.907880;12.941430;https://hofladen.info/hofladen/biohof-lecker
Hof Dehlfing;Nienburger Str. 68;49453;Rehden;Niedersachsen;Deutschland;52.609237;8.490361;https://hofladen.info/hofladen/hof-dehlfing
Hildinger Honig;Schwarzbronn 11;97993;Creglingen;Baden-Württemberg;Deutschland;49.471439;10.029969;https://hofladen.info/hofladen/hildinger-honig
Obsthof Ramdohr;Hollernstr. 156;21723;Hollern-Twielenfleth;Niedersachsen;Deutschland;53.602760;9.529760;https://hofladen.info/hofladen/obsthof-ramdohr
Hofladen Biohof Braun;14 Hohbergstraße;71665;Vaihingen Enz;Baden-Württemberg;Deutschland;48.916322;8.935109;https://hofladen.info/hofladen/hofladen-biohof-braun
Mannschreck Weine Vinomat 24/7 (Weinautomat);Hauptstraße 80;71384;Weinstadt ;Baden-Württemberg;Deutschland;48.785050;9.364758;https://hofladen.info/hofladen/mannschreck-weine-vinomat-24-7-weinautomat
Gärtnerei & Hofladen Langenwolschendorf;Am Schafteich 7;7937;Langenwolschendorf;Thüringen;Deutschland;50.640674;11.967196;https://hofladen.info/hofladen/gartnerei-hofladen-langenwolschendorf-2
Selbsterntefeld Gut Vockrath;Gut Vockrath  (Vockrather Weg);41472;Neuss;Nordrhein-Westfalen;Deutschland;51.153024;6.639175;https://hofladen.info/hofladen/selbsterntefeld-gut-vockrath
Frische Automat David´s Biohof;Waldemarstr. 52;18057;Rostock;Mecklenburg-Vorpommern;Deutschland;54.088054;12.113476;https://hofladen.info/hofladen/frische-automat-david%C2%B4s-biohof
Stautenhof;Darderhöfe 1a;47877 ;Willich;Nordrhein-Westfalen;Deutschland;51.282524;6.472568;https://hofladen.info/hofladen/stautenhof
Diet's Honigscheune;Neuschönburger Straße 10b;8132;Mülsen;Sachsen;Deutschland;50.708357;12.624207;https://hofladen.info/hofladen/diet-s-honigscheune-imkerei-dieter-scharf
Talhof;Talhof 1;89522;Heidenheim;Baden-Württemberg;Deutschland;48.671860;10.131610;https://hofladen.info/hofladen/talhof
Nonies Hof;Heidäckersiedlung 4;74924;Neckarbischofsheim;Baden-Württemberg;Deutschland;49.306300;8.972670;https://hofladen.info/hofladen/nonies-hof
Frischmilchautomat im Edeka Zöllick;Hermannstraße 30;18055;Rostock;Mecklenburg-Vorpommern;Deutschland;54.082950;12.135150;https://hofladen.info/hofladen/frischmilchautomat-im-edeka-zollick
Imkerei Tietjen;Schulstrasse 6;27419 ;Klein Meckelsen;Niedersachsen;Deutschland;53.305801;9.451901;https://hofladen.info/hofladen/imkerei-tietjen
Obsthof Wenz;Obsthof 1 Gewann Rotebusch;76327;Pfinztal;Baden-Württemberg;Deutschland;48.985233;8.527893;https://hofladen.info/hofladen/obsthof-wenz
Hofladen Imkerii Söte Deern;Mitteldeich 1;25845;Nordstrand;Schleswig-Holstein;Deutschland;54.503140;8.816190;https://hofladen.info/hofladen/hofladen-imkerii-sote-deern
BERGSDORFER WIESENRIND;Liebenberger Weg 12c;16792;Zehdenick;Brandenburg;Deutschland;52.922229;13.255241;https://hofladen.info/hofladen/bergsdorfer-wiesenrind
Frischmilchautomat in Marihn;;17217;Marihn;Mecklenburg-Vorpommern;Deutschland;53.520894;12.995850;https://hofladen.info/hofladen/frischmilchautomat-in-marihn
homemade;Karstedtshofer Straße 2;16909;Wittstock;Brandenburg;Deutschland;53.099543;12.465955;https://hofladen.info/hofladen/homemade
Bornwiesenhof;Hußweilerstraße 40;55767;Wilzenberg-Hußweiler;Rheinland-Pfalz;Deutschland;49.701750;7.227790;https://hofladen.info/hofladen/bornwiesenhof
Eekenhof;Flachsweg 40;26316;Varel;Niedersachsen;Deutschland;53.373730;8.140330;https://hofladen.info/hofladen/eekenhof
Hofladen Reinstorf;Hauptstraße 9;23992;Zurow;Mecklenburg-Vorpommern;Deutschland;53.847741;11.640754;https://hofladen.info/hofladen/hofladen-reinstorf
Hof Kruse;Sarninghausen 24;31595;Steyerberg;Niedersachsen;Deutschland;52.567620;8.977520;https://hofladen.info/hofladen/hof-kruse
Hainich Hofladen;An der Leuba 118;9322;Penig;Sachsen;Deutschland;50.970190;12.678700;https://hofladen.info/hofladen/hainich-hofladen
Kolvenbacher Ziegenhof;Konradgasse 1;53902;Bad Münstereifel;Nordrhein-Westfalen;Deutschland;50.532950;6.750760;https://hofladen.info/hofladen/kolvenbacher-ziegenhof
Biolandhof Schulze Wethmar;Waldweg 3;44534;Lünen;Nordrhein-Westfalen;Deutschland;51.623910;7.558530;https://hofladen.info/hofladen/biolandhof-schulze-wethmar
Altenweddinger Geflügelhof;Breite Straße 45;39171;Sülzetal;Sachsen-Anhalt;Deutschland;51.993748;11.534116;https://hofladen.info/hofladen/altenweddinger-geflugelhof
Gut Gadewitz;Gadewitz Nr. 10;4720;Großweitzschen;Sachsen;Deutschland;51.159156;13.136410;https://hofladen.info/hofladen/gut-gadewitz
Hofgut Hohenwald;Oberurseler Str. 69;61476;Kronberg im Taunus;Hessen;Deutschland;50.183720;8.548840;https://hofladen.info/hofladen/hofgut-hohenwald
Hofladen Späth;Späthstraße 80/81;12437;Berlin;Brandenburg;Deutschland;52.454336;13.473725;https://hofladen.info/hofladen/hofladen-spath
Hof Huxhardt;Huxhardt 1;58579;Schalksmühle;Nordrhein-Westfalen;Deutschland;51.254640;7.508230;https://hofladen.info/hofladen/hof-huxhardt
Kartoffelhof Moorschlatt;Wildeshauser Landstraße 103;27777;Ganderkesee;Niedersachsen;Deutschland;52.975449;8.523530;https://hofladen.info/hofladen/kartoffelhof-moorschlatt
Bioland-Imkerei Lahres;Am Gutshof 3;15345;Garzau-Garzin;Brandenburg;Deutschland;52.534382;13.944537;https://hofladen.info/hofladen/bioland-imkerei-lahres
Herrmanns Hof ;Dorfstr. 22 ;06184;Kabelsketal;Sachsen-Anhalt;Deutschland;51.417739;12.145561;https://hofladen.info/hofladen/herrmanns-hof
Wendenborsteler Hofladen;Clausberg 2;31634;Steimbke;Niedersachsen;Deutschland;52.646445;9.435591;https://hofladen.info/hofladen/wendenborsteler-hofladen
Lädle;Riegenhof 4;74535;Mainhardt;Baden-Württemberg;Deutschland;49.078014;9.571451;https://hofladen.info/hofladen/ladle
Herbst-Hof;Kreischaer Str. 6;4758;Oschatz;Sachsen;Deutschland;51.280122;13.091758;https://hofladen.info/hofladen/herbst-hof
Vierfelderhof;Groß-Glienicker Weg 30;14089;Berlin;Berlin;Deutschland;52.482808;13.171991;https://hofladen.info/hofladen/vierfelderhof
Dorfschäferei Palmzin;Chausseestrasse 03;18334;Semlow;Mecklenburg-Vorpommern;Deutschland;54.180990;12.624370;https://hofladen.info/hofladen/dorfschaferei-palmzin
Die Ziegerei;Eschenhorst 7;27330;Asendorf;Niedersachsen;Deutschland;52.752580;8.955320;https://hofladen.info/hofladen/die-ziegerei
Klosterhofspargel;Zand 1;47638;Straelen;Nordrhein-Westfalen;Deutschland;51.435140;6.267920;https://hofladen.info/hofladen/klosterhofspargel
Allgäu Hof Müller;Am Floschen 2;88410;Bad Wurzach;Baden-Württemberg;Deutschland;47.873240;9.955160;https://hofladen.info/hofladen/allgau-hof-muller
Jüttes Weidberg-Hof;Am Weidberg 1;34233;Fuldatal;Hessen;Deutschland;51.379280;9.499170;https://hofladen.info/hofladen/juttes-weidberg-hof
Landbauernhof Hohreute;Hohreutehof 83;88696;Owingen;Baden-Württemberg;Deutschland;47.814218;9.173031;https://hofladen.info/hofladen/landbauernhof-hohreute
Bühlertal Alpakas GbR ;Geifertshofer Str. 19 19;74426;Bühlerzell;Baden-Württemberg;Deutschland;49.002686;9.915206;https://hofladen.info/hofladen/buhlertal-alpakas-gbr
Erdbeerparadies Krähenwinkel;Hainhäuser Weg 60 Ecke Sportplatzweg ;30855;Langenhagen;Niedersachsen;Deutschland;52.473429;9.740839;https://hofladen.info/hofladen/erdbeerparadies-krahenwinkel
Spargelhof Schoofs;Brüxkener Straße 26;47638;Straelen;Nordrhein-Westfalen;Deutschland;51.401300;6.250185;https://hofladen.info/hofladen/spargelhof-schoofs
Jagsttalranch;Großforst 5;74582;Gerabronn-Großforst;Baden-Württemberg;Deutschland;49.225063;9.878575;https://hofladen.info/hofladen/jagsttalranch
Tenkhoff;Dattelner Straße 84;59399;Olfen;Nordrhein-Westfalen;Deutschland;51.682750;7.358720;https://hofladen.info/hofladen/tenkhoff
Spreewälder Bauernladen;Ringchaussee 30;03096;Burg;Brandenburg;Deutschland;51.848001;14.103305;https://hofladen.info/hofladen/spreewalder-bauernladen
Der kleine Hofladen ;Jeebener Dorfstr. 268 ;38489;Beetzendorf;Sachsen-Anhalt;Deutschland;52.681319;11.089884;https://hofladen.info/hofladen/der-kleine-hofladen
Hofladen Gut Rothenhausen;Gut Rothenhausen 6;23860;Groß Schenkenberg;Schleswig-Holstein;Deutschland;53.805220;10.600070;https://hofladen.info/hofladen/hofladen-gut-rothenhausen
Meyer's Hof;Burgdorfer Str. 38;31303;Burgdorf;Niedersachsen;Deutschland;52.485300;10.008560;https://hofladen.info/hofladen/meyer-s-hof
Gut Wilhelmsdorf;Verler Straße 248;33689;Bielefeld;Nordrhein-Westfalen;Deutschland;51.925860;8.552270;https://hofladen.info/hofladen/gut-wilhelmsdorf
Spargelhof Allofs;Broecksteg 5;47608;Geldern;Nordrhein-Westfalen;Deutschland;51.504230;6.234570;https://hofladen.info/hofladen/spargelhof-allofs
Weihnachtsbäume Meßthaler;Brechhausstr. 14 Verkauf zwischen Wolframs-Eschenbach und Waizendorf;91639;Wolframs-Eschenbach;Bayern;Deutschland;49.223974;10.716391;https://hofladen.info/hofladen/weihnachtsbaume-me%C3%9Fthaler
Rainer Audehm;Dorfstraße 14;29643;Neuenkirchen-Tewel;Niedersachsen;Deutschland;53.066375;9.663100;https://hofladen.info/hofladen/rainer-audehm
Spargelhof Pasch;Brüxkener-Str. 24;47638;Straelen;Nordrhein-Westfalen;Deutschland;51.401090;6.249820;https://hofladen.info/hofladen/spargelhof-pasch
Eierhüttle;Obermaibach;74535;Mainhardt;Baden-Württemberg;Deutschland;49.078054;9.557513;https://hofladen.info/hofladen/eierhuttle
Steinbecker Hofladen;Dorfstraße 10;23948;Steinbeck;Mecklenburg-Vorpommern;Deutschland;53.996950;11.139390;https://hofladen.info/hofladen/steinbecker-hofladen
Steinkrögers Hofladen;Nordfeldweg 32;33659;Bielefeld;Nordrhein-Westfalen;Deutschland;51.963506;8.511991;https://hofladen.info/hofladen/steinkrogers-hofladen
Hof Blohme;Hagener Str. 3;27299;Langwedel;Niedersachsen;Deutschland;52.980262;9.113882;https://hofladen.info/hofladen/hof-blohme
Obsthof Hornemann;Am Schachtteich 1;39171;Sülzetal;Sachsen-Anhalt;Deutschland;52.009500;11.513450;https://hofladen.info/hofladen/obsthof-hornemann
Gut Bliesdorf;Hauptstraße 40;23847;Bliestorf;Schleswig-Holstein;Deutschland;53.765680;10.576820;https://hofladen.info/hofladen/gut-bliesdorf
Pröhl's Hofladen;Dorfstraße 22;21407;Deutsch Evern;Niedersachsen;Deutschland;53.201127;10.438892;https://hofladen.info/hofladen/prohl-s-hofladen
Hof Beuke;Dorfstr. 55;27239;Twistringen;Niedersachsen;Deutschland;52.792788;8.621030;https://hofladen.info/hofladen/hof-beuke
Daxlberg;Daxlberg 1;83083;Riedering;Bayern;Deutschland;47.840120;12.217480;https://hofladen.info/hofladen/daxlberg
Erdbeerhof Stegemannshof;Stegemannshof 4;17291;Prenzlau;Brandenburg;Deutschland;53.336267;13.922784;https://hofladen.info/hofladen/erdbeerhof-stegemannshof
Imkerei Voigthof;Paulmannshavekost 2b;29358;Eicklingen;Niedersachsen;Deutschland;52.542336;10.230992;https://hofladen.info/hofladen/imkerei-voigthof
Das tapfere Bäuerlein ;Bahnhofstrasse 8;37293 ;Herleshausen;Hessen;Deutschland;51.005904;10.163410;https://hofladen.info/hofladen/das-tapfere-bauerlein
Hagenester Hofladen;Hagenest 38;4565;Regis-Breitingen;Sachsen;Deutschland;51.087954;12.357775;https://hofladen.info/hofladen/hagenester-hofladen
Imkerei Honigbüchse;Alter Grenzweg 19;29614;Soltau;Niedersachsen;Deutschland;52.976666;9.828950;https://hofladen.info/hofladen/imkerei-honigbuchse
Frischmilchautomat im Rewe;Röbeler Straße 45;16909;Wittstock;Brandenburg;Deutschland;53.170940;12.497520;https://hofladen.info/hofladen/frischmilchautomat-im-rewe
Hof Sonnenberg;Hof Sonnenberg;63619;Bad Orb;Hessen;Deutschland;50.241880;9.327050;https://hofladen.info/hofladen/hof-sonnenberg
Pauls Spargel;Genholter Straße 30;41379;Brüggen;Nordrhein-Westfalen;Deutschland;51.258992;6.190120;https://hofladen.info/hofladen/pauls-spargel
Spargelhof Buchholz;Röddenser Dorfstr. 4;31275;Lehrte;Niedersachsen;Deutschland;52.416120;9.980210;https://hofladen.info/hofladen/spargelhof-buchholz
Rattstadter Milch- und Käsehof;Haldenstraße 2/1;73479;Ellwangen;Baden-Württemberg;Deutschland;48.975580;10.168520;https://hofladen.info/hofladen/rattstadter-milch-und-kasehof
Hofladen Imkerei Brauße;Blankenseer Dorfstraße 2;14959;Blankensee;Brandenburg;Deutschland;52.238769;13.126969;https://hofladen.info/hofladen/hofladen-imkerei-brau%C3%9Fe
Hofladen Gut Temmen;Lindenallee 3;17268;Temmen;Brandenburg;Deutschland;53.095640;13.754280;https://hofladen.info/hofladen/hofladen-gut-temmen
Naturhof Kevelaer;Altwettener-Weg 12;47625;Kevelaer;Nordrhein-Westfalen;Deutschland;51.582060;6.299348;https://hofladen.info/hofladen/naturhof-kevelaer
Dettelbach Obst Liggeringen;Dettelbachstraße;78315;Radolfzell;Baden-Württemberg;Deutschland;47.784269;9.018917;https://hofladen.info/hofladen/dettelbach-obst-liggeringen
Hofladen Medewege;Hauptstraße 16;19055;Schwerin;Mecklenburg-Vorpommern;Deutschland;53.660480;11.398680;https://hofladen.info/hofladen/hofladen-medewege
Weihersmühle;Weihersweg 27;97650;Fladungen;Bayern;Deutschland;50.524478;10.124708;https://hofladen.info/hofladen/weihersmuhle
Jettes Hofladen;Am Eulenturm 2 ;17268 ;Templin;Brandenburg;Deutschland;53.117595;13.501910;https://hofladen.info/hofladen/jettes-hofladen
Agrargesellschaft Chemnitz;Gartenstraße 1;17039;Chemnitz;Mecklenburg-Vorpommern;Deutschland;53.582020;13.157340;https://hofladen.info/hofladen/agrargesellschaft-chemnitz
Leitzachtaler Ziegenhof;Sandbichl 2+4;83730;Fischbachau;Bayern;Deutschland;47.716190;11.945220;https://hofladen.info/hofladen/leitzachtaler-ziegenhof
Angela Jöst;Abtsteinacher Str. 12;69488;Birkenau;Hessen;Deutschland;49.546174;8.760239;https://hofladen.info/hofladen/angela-jost
Forellengut Rosengarten;Untere Neumühle 48-57;54441;Trassem;Rheinland-Pfalz;Deutschland;49.565513;6.522870;https://hofladen.info/hofladen/forellengut-rosengarten
Ziegenhof Gülzer Geißen auf dem Wochenmakt in Boizenburg;Am Markt Wochenmarktplatz;19258;Boizenburg / Elbe;Mecklenburg-Vorpommern;Deutschland;53.374740;10.723150;https://hofladen.info/hofladen/ziegenhof-gulzer-gei%C3%9Fen-auf-dem-wochenmakt-in-boizenburg
Mauch Wolfgang;Gebersheimer str.5;71254;Ditzingen - Schöckingen;Baden-Württemberg;Deutschland;48.843778;9.029039;https://hofladen.info/hofladen/mauch-wolfgang
Hartmut Trautvetter;Dorfstr. 2 2;39345;Wedringen;Sachsen-Anhalt;Deutschland;52.276110;11.466252;https://hofladen.info/hofladen/hartmut-trautvetter
Obsthof Schröder;Hinterbrack 6 ;21635;Jork;Niedersachsen;Deutschland;53.545770;9.762280;https://hofladen.info/hofladen/obsthof-schroder
Hofladen Rote Rübe;Kirchweg 1;34260;Niederkaufungen;Hessen;Deutschland;51.285430;9.601900;https://hofladen.info/hofladen/hofladen-rote-rube
Hofbäckerei Schmidt;Dornwiesenhof 1;74427;Fichtenberg;Baden-Württemberg;Deutschland;48.988090;9.747720;https://hofladen.info/hofladen/hofbackerei-schmidt
Alpakahof am Iserberg;Dorfstraße 10;23936;Hamberge;Mecklenburg-Vorpommern;Deutschland;53.874270;11.237830;https://hofladen.info/hofladen/alpakahof-am-iserberg
Obsthof Lindicke;Am Plessower Eck 1;14542;Werder;Brandenburg;Deutschland;52.380240;12.868130;https://hofladen.info/hofladen/obsthof-lindicke
SoLaWi Hofladen;Weberstraße 37;28203;Bremen;Niedersachsen;Deutschland;53.071759;8.821789;https://hofladen.info/hofladen/solawi-hofladen
Hof Buschsieweke;Westring 21;33397;Rietberg;Nordrhein-Westfalen;Deutschland;51.832420;8.388190;https://hofladen.info/hofladen/hof-buschsieweke
Bio-Hof Mayer;Hengelgasse 1;74423;Obersontheim;Baden-Württemberg;Deutschland;49.024702;9.846387;https://hofladen.info/hofladen/bio-hof-mayer
Milchschafhof Brünjes;Ostendorf 51;27432;Bremervörde;Niedersachsen;Deutschland;53.584970;9.148100;https://hofladen.info/hofladen/milchschafhof-brunjes
Spargelhof Andermann;Poststraße 6;31626;Haßbergen;Niedersachsen;Deutschland;52.731950;9.231870;https://hofladen.info/hofladen/spargelhof-andermann
Frische Eier;Lichtentann 42;15838;Am Mellensee;Brandenburg;Deutschland;52.172300;13.394240;https://hofladen.info/hofladen/frische-eier
Landgut Klamroth;Westerhäuser Schützenplatz 1;6502;Thale;Sachsen-Anhalt;Deutschland;51.810460;11.060040;https://hofladen.info/hofladen/landgut-klamroth
Rokitta's Kaffeemanufaktur;Gremersdorfer Str. 7;18461;Gremersdorf-Buchholz;Mecklenburg-Vorpommern;Deutschland;54.129832;12.883409;https://hofladen.info/hofladen/rokitta-s-kaffeemanufaktur
Schwalbenhof;Rathausstr. 37;55608;Berschweiler;Rheinland-Pfalz;Deutschland;49.772410;7.387420;https://hofladen.info/hofladen/schwalbenhof
Obstbau & Brennerei Ickert;Neuensteiner Steige 5;74613;Öhringen;Baden-Württemberg;Deutschland;49.178046;9.556580;https://hofladen.info/hofladen/obstbau-brennerei-ickert
Schiebers Bauernhof;Lindich 2;74523;Schwäbisch Hall;Baden-Württemberg;Deutschland;49.084360;9.696640;https://hofladen.info/hofladen/schiebers-bauernhof
Obsthof Bey;Groß Hove 136 ;21635;Jork;Niedersachsen;Deutschland;53.530790;9.761020;https://hofladen.info/hofladen/obsthof-bey
Huxhardter Milchhäusel am Stöcken;Stöcken 1;58339;Breckerfeld;Nordrhein-Westfalen;Deutschland;51.260390;7.506750;https://hofladen.info/hofladen/huxhardter-milchhausel-am-stocken
Der kleine Hofladen in Alt-Sammit  bei Krakow am See;Lindenstrasse 37 OT ALT-SAMMIT;18292;Krakow am See,OT Alt-Sammit ;Mecklenburg-Vorpommern;Deutschland;53.644563;12.228584;https://hofladen.info/hofladen/der-kleine-hofladen-in-alt-sammit-bei-krakow-am-see
Sulzburghof Kuch;Max Leuze Str. 10-16;73252;Lenningen;Baden-Württemberg;Deutschland;48.564590;9.454760;https://hofladen.info/hofladen/sulzburghof-kuch
Vulkanhof Ziegenkäserei;Vulkanstr. 29;54558;Gillenfeld;Rheinland-Pfalz;Deutschland;50.128380;6.914380;https://hofladen.info/hofladen/vulkanhof-ziegenkaserei
KEKILA Fruchtsäfte;Grüne Aue 18;02708;Lawalde-Lauba;Sachsen;Deutschland;51.080022;14.576125;https://hofladen.info/hofladen/kekila-fruchtsafte
Mosel-Weinversand;Müller Thurgau Straße 15;54536;Kröv;Rheinland-Pfalz;Deutschland;49.980356;7.084921;https://hofladen.info/hofladen/mosel-weinversand
Frischmilchautomat am Globus;Globusring 2;17207;Roggentin;Mecklenburg-Vorpommern;Deutschland;54.075900;12.201830;https://hofladen.info/hofladen/frischmilchautomat-am-globus
Schultzens Siedlerhof;Karl-Liebknecht-Straße 17;14542;Werder (Havel);Brandenburg;Deutschland;52.348176;12.883078;https://hofladen.info/hofladen/schultzens-siedlerhof
Eichhälderhof Lädle GbR;Eichhälderhof 1;75203;Königsbach-Stein;Baden-Württemberg;Deutschland;48.980549;8.595723;https://hofladen.info/hofladen/eichhalderhof-ladle-gbr
Hof Holste;Ortende 5;27327;Martfeld;Niedersachsen;Deutschland;52.873784;9.072148;https://hofladen.info/hofladen/hof-holste
Hof Walden;Große Bauernreihe 6;18317;Saal;Mecklenburg-Vorpommern;Deutschland;54.296150;12.526280;https://hofladen.info/hofladen/hof-walden
Spargel- und Erdbeerhof Nuttelmann;Sarninghausen 3;31595;Steyerberg;Niedersachsen;Deutschland;52.569350;8.997290;https://hofladen.info/hofladen/spargel-und-erdbeerhof-nuttelmann
Schafhaltung Küthe;Mühlchenstraße 7;57078;Siegen;Nordrhein-Westfalen;Deutschland;50.933160;7.947200;https://hofladen.info/hofladen/schafhaltung-kuthe
Hofladen und Hofcafe Dahmen;Dorfstraße 2;17166;Dahmen;Mecklenburg-Vorpommern;Deutschland;53.662510;12.612810;https://hofladen.info/hofladen/hofladen-und-hofcafe-dahmen
Hofgut Kapellenhof;Auf dem alten Hof 1;63546;Hammersbach;Hessen;Deutschland;50.230160;8.948960;https://hofladen.info/hofladen/hofgut-kapellenhof
Schillings Hofladen;Hafenweg 45;18569;Schaprode;Mecklenburg-Vorpommern;Deutschland;54.513060;13.165660;https://hofladen.info/hofladen/schillings-hofladen
Bauernhof Burkart;Hauptstraße 7;74544;Michelbach an der Bilz;Baden-Württemberg;Deutschland;49.084940;9.752360;https://hofladen.info/hofladen/bauernhof-burkart
Kaplan's Hoflädele ;Bachhaupten 100;88356;Ostrach;Baden-Württemberg;Deutschland;47.979821;9.434219;https://hofladen.info/hofladen/kaplan-s-hofladele
Täler-Straußenfarm Hellborn;Hellborn 29;07646;Renthendorf;Thüringen;Deutschland;50.814064;11.872508;https://hofladen.info/hofladen/taler-strau%C3%9Fenfarm-hellborn
Hofladen Melder;Karlsruher Str. 55;76676;Graben-Neudorf;Baden-Württemberg;Deutschland;49.155173;8.482825;https://hofladen.info/hofladen/hofladen-melder
Imkerei Majas Schlaraffenland;Augustenweg 9;82140;Olching;Bayern;Deutschland;48.213716;11.349945;https://hofladen.info/hofladen/imkerei-majas-schlaraffenland
Hofladen Weixdorf;Pastor-Roller-Str. 42;01108;Dresden;Sachsen;Deutschland;51.151500;13.800414;https://hofladen.info/hofladen/hofladen-weixdorf
Hofladen Stackkamp;Stackkamp 1;28309;Bremen;Bremen;Deutschland;53.043940;8.905220;https://hofladen.info/hofladen/hofladen-stackkamp
Berbigs Hofladen ;Dorfstr. 7 ;6632;Balgstädt;Sachsen-Anhalt;Deutschland;51.206089;11.687547;https://hofladen.info/hofladen/berbigs-hofladen
Heidefelder Bio - SB Laden;An der Kuhtrift 1;52388;Nörvenich-Oberbolheim;Nordrhein-Westfalen;Deutschland;50.813880;6.656964;https://hofladen.info/hofladen/heidefelder-bio-sb-laden
Schloß Föhren;Hofstrasse 27;54343 ;Föhren;Rheinland-Pfalz;Deutschland;49.861210;6.766830;https://hofladen.info/hofladen/schlo%C3%9F-fohren
Biotopia ;Winkel 7 ;6456;Arnstein;Sachsen-Anhalt;Deutschland;51.683330;11.466660;https://hofladen.info/hofladen/biotopia
Lunetaler;Taben 3;27616;Beverstedt;Niedersachsen;Deutschland;53.429570;8.846350;https://hofladen.info/hofladen/lunetaler
Dexter Hof Tammert;Feldstraße 34;17498;Hinrichshagen;Mecklenburg-Vorpommern;Deutschland;54.078475;13.321329;https://hofladen.info/hofladen/dexter-hof-tammert
Wild- und Wurstdelikatessen aus Franken;An der Steige 7;97892;Kreuzwertheim;Bayern;Deutschland;49.768010;9.517100;https://hofladen.info/hofladen/wild-und-wurstdelikatessen-aus-franken
 Bubenorbiser Dorfladen;Dorfmitte 7;74535;Mainhardt;Baden-Württemberg;Deutschland;49.084710;9.612530;https://hofladen.info/hofladen/bubenorbiser-dorfladen
Bienes Hofladen;Waldstraße 9;9557;Flöha;Sachsen;Deutschland;50.846950;13.064540;https://hofladen.info/hofladen/bienes-hofladen
Biolandhof Reimer;Flurstr. 6;74405;Gaildorf;Baden-Württemberg;Deutschland;48.967658;9.751485;https://hofladen.info/hofladen/biolandhof-reimer
Hof Sallach;Partschefeld 15;7407;Uhlstädt-Kirchhasel;Thüringen;Deutschland;50.755390;11.439150;https://hofladen.info/hofladen/hof-sallach
Mosterei Klimmek;Parkweg 4;16278;Angermünde;Brandenburg;Deutschland;53.004639;13.968545;https://hofladen.info/hofladen/mosterei-klimmek
Gut Bergfeld;Am Hof 1 Gut Bergfeld;17237;Bergfeld;Mecklenburg-Vorpommern;Deutschland;53.352550;13.279970;https://hofladen.info/hofladen/gut-bergfeld
Imkerei Franz Pfluger;Unterschönegg 12;87727;Babenhausen;Bayern;Deutschland;48.160857;10.221612;https://hofladen.info/hofladen/imkerei-franz-pfluger
Obstproduktion Höhnstedt ;Langenbogener Str. 18 ;6198;Salzatal;Sachsen-Anhalt;Deutschland;51.500630;11.748040;https://hofladen.info/hofladen/obstproduktion-hohnstedt
Heumis Hof;Iglinger Straße 48;86857;Hurlach;Bayern;Deutschland;48.110640;10.816780;https://hofladen.info/hofladen/heumis-hof
Der Hofladen;Dorfstr.10;74423;Obersontheim;Baden-Württemberg;Deutschland;49.041358;9.861959;https://hofladen.info/hofladen/der-hofladen
Kuhnweiler Hof Laden;Kuhnweiler 3;71577;Großerlach;Baden-Württemberg;Deutschland;49.073729;9.502219;https://hofladen.info/hofladen/kuhnweiler-hof-laden
Weide-Eier Pflugfelder;Im Kornfeld 13;71696;Möglingen;Baden-Württemberg;Deutschland;48.869190;9.126750;https://hofladen.info/hofladen/weide-eier-pflugfelder
Ziegenhof Ensmad;Ensmad 2;88515;Langenenslingen;Baden-Württemberg;Deutschland;48.193560;9.343640;https://hofladen.info/hofladen/ziegenhof-ensmad
Breitenwegerhof;Endingerstraße 55;79356;Eichstetten;Baden-Württemberg;Deutschland;48.101980;7.731060;https://hofladen.info/hofladen/breitenwegerhof
Gut Rosengarten;Rosengarten 9A;18574;Garz;Mecklenburg-Vorpommern;Deutschland;54.307480;13.382400;https://hofladen.info/hofladen/gut-rosengarten
Forellenparadies Weinberger;Frohnfalls 51;74535;Mainhardt;Baden-Württemberg;Deutschland;49.126214;9.552006;https://hofladen.info/hofladen/forellenparadies-weinberger
Hof Mahlitzsch;Mahlitzsch 1;1683;Nossen;Sachsen;Deutschland;51.078262;13.367106;https://hofladen.info/hofladen/hof-mahlitzsch
Alte Büdnerei Kühlungsborn;Doberaner Landweg 8;18225;Kühlungsborn;Mecklenburg-Vorpommern;Deutschland;54.131320;11.772550;https://hofladen.info/hofladen/alte-budnerei-kuhlungsborn
Heitlinger Geflügelhof;Im Zitterich 8;75031;Eppingen - Rohrbach;Baden-Württemberg;Deutschland;49.130372;8.854335;https://hofladen.info/hofladen/heitlinger-geflugelhof
Garlipp-Spargel ;Schelldorfer Dorfstr. 43 ;39517;Tangerhütte;Sachsen-Anhalt;Deutschland;52.474140;11.980210;https://hofladen.info/hofladen/garlipp-spargel
Röpers Hof;Am Kirchweg 6;27383;Scheeßel;Niedersachsen;Deutschland;53.128750;9.464550;https://hofladen.info/hofladen/ropers-hof
Schöngarten;Schöngartenstrasse, 16;88131;Lindau;Bayern;Deutschland;47.561410;9.687040;https://hofladen.info/hofladen/schongarten
Heimatladen Niederrhein;Jakob-Funke-Str. 1;45127;Essen;Nordrhein-Westfalen;Deutschland;51.460945;7.004834;https://hofladen.info/hofladen/heimatladen-niederrhein
Nöhrenhof;Im Jägerwinkel 2;31275;Lehrte;Niedersachsen;Deutschland;52.369990;9.984920;https://hofladen.info/hofladen/nohrenhof
AschauTeiche;Aschauteiche 1;29348;Eschede;Niedersachsen;Deutschland;52.751234;10.265268;https://hofladen.info/hofladen/aschauteiche
Biohof Jockel;Rabenstein 5;36396;Steinau an der Straße;Hessen;Deutschland;50.377210;9.375790;https://hofladen.info/hofladen/biohof-jockel
Heger‘s Hofladen;;;;;;;;https://hofladen.info/hofladen/heger%E2%80%98s-hofladen
"Obst-& Gemüsehof  ""Teltower Rübchen"" Beate & Axel Szilleweit";Ruhlsdorfer Str. 87 A Ecke Schenkendorfer Weg;14513;Teltow;Brandenburg;Deutschland;52.388448;13.264086;https://hofladen.info/hofladen/obst-gemusehof-teltower-rubchen-beate-axel-szilleweit
Stellshagen&Meer;Ostseeallee 110;23946;Boltenhagen;Mecklenburg-Vorpommern;Deutschland;53.979320;11.233260;https://hofladen.info/hofladen/stellshagen-meer
Uwe Wendt;Königsbrücker StR.69 69;01917;Kamenz;Sachsen;Deutschland;51.275098;14.079914;https://hofladen.info/hofladen/uwe-wendt
Ziegenhof Gülzer Geißen;Am Gülzer Wald 10;19273;Teldau;Mecklenburg-Vorpommern;Deutschland;53.353970;10.810670;https://hofladen.info/hofladen/ziegenhof-gulzer-gei%C3%9Fen
Erlebnis-Bauernhof Kliewe;Mursewiek 1;18569;Ummanz;Mecklenburg-Vorpommern;Deutschland;54.447990;13.184650;https://hofladen.info/hofladen/erlebnis-bauernhof-kliewe
Straussenfarm Hegau-Bodensee;Airach 3 ;78333;Stockach;Baden-Württemberg;Deutschland;47.845420;9.037100;https://hofladen.info/hofladen/straussenfarm-hegau-bodensee
Hofladen Falkensee;Dallgower Straße 1;14624;Dallgow-Döberitz;Brandenburg;Deutschland;52.544070;13.091080;https://hofladen.info/hofladen/hofladen-falkensee
Waldhof Bruchmühle;Bruchmühle 1;17213;Fünfseen;Mecklenburg-Vorpommern;Deutschland;53.440210;12.389040;https://hofladen.info/hofladen/waldhof-bruchmuhle
Ziegenhof Gülzer Geißen auf dem Wochenmakt in Dannenberg;Am Markt Wochenmarktplatz;29451 ;Dannenberg;Niedersachsen;Deutschland;53.098800;11.095990;https://hofladen.info/hofladen/ziegenhof-gulzer-gei%C3%9Fen-auf-dem-wochenmakt-in-dannenberg
Loth Hof Laden;Biberweg 1;82541;Münsing;Bayern;Deutschland;47.904050;11.376010;https://hofladen.info/hofladen/loth-hof-laden
Bredemeier Bauernlädchen;Borsteler Strasse 1 ;31749;Auetal;Niedersachsen;Deutschland;52.231840;9.184670;https://hofladen.info/hofladen/bredemeier-bauernladchen
Weingut Borth;Unterheimbacher Str. 35;74626;Bretzfeld;Baden-Württemberg;Deutschland;49.163680;9.451323;https://hofladen.info/hofladen/weingut-borth
Bauers Hofladen;Klotzscher Straße 30;1465;Langebrück;Sachsen;Deutschland;51.132195;13.838638;https://hofladen.info/hofladen/bauers-hofladen
Frischmilchautomat im Edeka Groth;Kühlhausberg 7;17235;Neustrelitz;Mecklenburg-Vorpommern;Deutschland;53.347520;13.079745;https://hofladen.info/hofladen/frischmilchautomat-im-edeka-groth
Hofladen Meßthaler Obererlbach;Juchhöhweg 15 Meßthaler;91729;Haundorf;Bayern;Deutschland;49.183889;10.823988;https://hofladen.info/hofladen/hofladen-me%C3%9Fthaler-obererlbach
Naturhof Vogtland;Weststraße 51;08485;Lengenfeld;Sachsen;Deutschland;50.566020;12.341018;https://hofladen.info/hofladen/naturhof-vogtland
Hofladen Austermann;Neuwarendorf 24;48231;Warendorf;Nordrhein-Westfalen;Deutschland;51.958720;7.948890;https://hofladen.info/hofladen/hofladen-austermann
Forellenzucht Hoch-Spessart;;97840;Erlenfurt;Bayern;Deutschland;49.945600;9.478170;https://hofladen.info/hofladen/forellenzucht-hoch-spessart
Erdbeer & Spargelland Lienau;Dorfstr. 21;29336;Nienhagen;Niedersachsen;Deutschland;52.552992;10.111944;https://hofladen.info/hofladen/erdbeer-spargelland-lienau
Frischmilchautomat Van der Ham;Feldstraße 2;17207;Bollewick;Mecklenburg-Vorpommern;Deutschland;53.358670;12.582100;https://hofladen.info/hofladen/frischmilchautomat-van-der-ham
Gabis Gemüsestodl;Großreuther Straße 103;90425 ;Nürnberg;Bayern;Deutschland;49.474988;11.084336;https://hofladen.info/hofladen/gabis-gemusestodl
Hofmetzgerei Müller;An der Zeiße 16;86695;Nordendorf;Bayern;Deutschland;48.584372;10.822757;https://hofladen.info/hofladen/hofmetzgerei-muller
Agrarprodukte Struppen GmbH;Hohe Strasse 8;01796 ;Struppen;Sachsen;Deutschland;50.933066;14.017377;https://hofladen.info/hofladen/agrarprodukte-struppen-gmbh
Jahnkes Ziegenkäse;See-Ender-Str. 6 ;24966;Sörup;Schleswig-Holstein;Deutschland;54.705650;9.634700;https://hofladen.info/hofladen/jahnkes-ziegenkase
Westerhäuser Käsehof;Unter dem Mühlenberg 410;6502;Thale;Sachsen-Anhalt;Deutschland;51.802320;11.049960;https://hofladen.info/hofladen/westerhauser-kasehof
Düsselauenhonig Jeremias Bruker;Unter den Eichen 31;40625;Düsseldorf;Nordrhein-Westfalen;Deutschland;51.232923;6.857636;https://hofladen.info/hofladen/dusselauenhonig-jeremias-bruker
Blumenstock;Eichwasen 1;74599;Wallhausen - Roßbürg;Baden-Württemberg;Deutschland;49.231591;10.083663;https://hofladen.info/hofladen/blumenstock
Bergkäserei Bierssenhof;Wienackerstraße 25;33184;Altenbeken;Nordrhein-Westfalen;Deutschland;51.755400;8.936430;https://hofladen.info/hofladen/bergkaserei-bierssenhof
Schafscheune Vietschow;Ringstraße 28;17168;Vietschow;Mecklenburg-Vorpommern;Deutschland;53.904170;12.539860;https://hofladen.info/hofladen/schafscheune-vietschow
Bauernladen am Kirschberg;Bortewitzer Straße 2 b;4774;Dahlen;Sachsen;Deutschland;51.366420;12.991930;https://hofladen.info/hofladen/bauernladen-am-kirschberg
Zeiselbacherhof;Hirschhornring 53;67435;Neustadt an der Weinstraße;Rheinland-Pfalz;Deutschland;49.387550;8.157910;https://hofladen.info/hofladen/zeiselbacherhof
Direktvermarktung Siegfried Hoffmann;Im Dorfe 26a;99441;Kiliansroda;Thüringen;Deutschland;50.916020;11.371220;https://hofladen.info/hofladen/direktvermarktung-siegfried-hoffmann
Hof Voigts;Große Straße 81;27313;Dörverden;Niedersachsen;Deutschland;52.853316;9.236074;https://hofladen.info/hofladen/hof-voigts
Imker Marchel Reetz;Henkinshainer Weg 24;17268;Templin;Brandenburg;Deutschland;53.156978;13.626995;https://hofladen.info/hofladen/imker-marchel-reetz
Der Blaue Schrank ;Bahnhofstr. 46;99830;Falken;Thüringen;Deutschland;51.114486;10.261551;https://hofladen.info/hofladen/der-blaue-schrank
Geflügelfarm Welbsleben ;Hauptstr. 21 ;6333;Welbsleben;Sachsen-Anhalt;Deutschland;51.716758;11.400070;https://hofladen.info/hofladen/geflugelfarm-welbsleben
Reimehof - Der Ziegenhof in der Hersbrucker Alb;Wallsdorf 1;91241;Kirchensittenbach;Bayern;Deutschland;49.604500;11.440950;https://hofladen.info/hofladen/reimehof-der-ziegenhof-in-der-hersbrucker-alb
Talhof Usingen;Talhof;61250;Usingen;Hessen;Deutschland;50.356060;8.561500;https://hofladen.info/hofladen/talhof-usingen
Mecklenburger Frische;Neubaustr. 11;18276;Gülzow-Prüzen;Mecklenburg-Vorpommern;Deutschland;53.738360;12.009576;https://hofladen.info/hofladen/mecklenburger-frische
Hof große Beilage;Auf der Beilage 2;49632;Essen (Oldenburg);Niedersachsen;Deutschland;52.708340;7.956270;https://hofladen.info/hofladen/hof-gro%C3%9Fe-beilage
Frischehof Döpke;Friesoyther Str. 1;49681;Garrel;Niedersachsen;Deutschland;52.885329;8.015192;https://hofladen.info/hofladen/frischehof-dopke
Demeterhof Breit;Hinter der Breit;54516;Wittlich;Rheinland-Pfalz;Deutschland;49.968200;6.857930;https://hofladen.info/hofladen/demeterhof-breit
Siemers Hofladen;Böttcherei 10;28844;Weyhe;Niedersachsen;Deutschland;52.985784;8.827134;https://hofladen.info/hofladen/siemers-hofladen
Hof Tangsehl;Tangsehl 2;21369;Nahrendorf;Niedersachsen;Deutschland;53.175030;10.880750;https://hofladen.info/hofladen/hof-tangsehl
Hof Steinrausch;Zamescheid 12;54595;Wascheid bei Prüm;Rheinland-Pfalz;Deutschland;50.254340;6.412520;https://hofladen.info/hofladen/hof-steinrausch
Laakenhof;Ennigerstrasse 41;59269;Beckum;Nordrhein-Westfalen;Deutschland;51.805750;7.997690;https://hofladen.info/hofladen/laakenhof
Hof EmsAuen;Im Brook 5;26899;Rhede;Niedersachsen;Deutschland;53.073500;7.302710;https://hofladen.info/hofladen/hof-emsauen
Büffelhof Steinwand;Schalmenhagweg 4;72172;Sulz-Dürrenmettstetten;Baden-Württemberg;Deutschland;48.386010;8.577660;https://hofladen.info/hofladen/buffelhof-steinwand
Ziegenhof Zickzack;Max-Planckstr. 25;53881;Euskirchen;Nordrhein-Westfalen;Deutschland;50.608057;6.845559;https://hofladen.info/hofladen/ziegenhof-zickzack
Spargelhof Janßen;Maasstraße ;47608;Geldern;Nordrhein-Westfalen;Deutschland;51.491546;6.228114;https://hofladen.info/hofladen/spargelhof-jan%C3%9Fen
Klostergut auf dem  Markt;Westfalenplatz 13 Ostreihe auf dem Freitagsmarkt;38108;Braunschweig;Niedersachsen;Deutschland;52.290520;10.556140;https://hofladen.info/hofladen/klostergut-auf-dem-markt
Imker Thomas Kalb;Neuer Friedhofweg 14;69151;Neckargemünd;Baden-Württemberg;Deutschland;49.376580;8.771310;https://hofladen.info/hofladen/imker-thomas-kalb
Hof Prangendorf;Siedlungsweg 4;18195;Cammin;Mecklenburg-Vorpommern;Deutschland;54.007930;12.389520;https://hofladen.info/hofladen/hof-prangendorf
Spargelhof Strampe;Lüneburger Landstr. 1 a;21398;Neetze;Niedersachsen;Deutschland;53.264790;10.623445;https://hofladen.info/hofladen/spargelhof-strampe
NLB-Quellmalz;Papitzer Straße 81;04435;Schkeuditz;Sachsen;Deutschland;51.397942;12.248139;https://hofladen.info/hofladen/nlb-quellmalz
Baumbachhof;Baumbachweg 9;75438;Kleinvillars;Baden-Württemberg;Deutschland;48.998660;8.747750;https://hofladen.info/hofladen/baumbachhof
Maries Ziegen- und Schafhof;Büdinger Straße 10;66663;Merzig-Silwingen;Saarland;Deutschland;49.424450;6.569630;https://hofladen.info/hofladen/maries-ziegen-und-schafhof
Werner Brosi;Im Kornfeld 5;71696;Möglingen;Baden-Württemberg;Deutschland;48.863420;9.138290;https://hofladen.info/hofladen/werner-brosi
Straupitzer Mühlenshop;Laasower Str.11a;15913;Straupitz;Brandenburg;Deutschland;51.915871;14.127036;https://hofladen.info/hofladen/straupitzer-muhlenshop
Hof Nuttelmann;Sarninghausen 3;31595;Steyerberg;Niedersachsen;Deutschland;52.569350;8.997290;https://hofladen.info/hofladen/hof-nuttelmann
Senn´s Hoflädele;Lausheim 14;88356;Ostrach;Baden-Württemberg;Deutschland;47.965314;9.309057;https://hofladen.info/hofladen/senn%C2%B4s-hofladele
Hallertauer Ziegenhof;Nandlstädterstr. 37;84104;Tegernbach;Bayern;Deutschland;48.565070;11.810220;https://hofladen.info/hofladen/hallertauer-ziegenhof
Bernhard Kerkmann;Endelner Weg 205;46286;Dorsten;Nordrhein-Westfalen;Deutschland;51.751410;6.971030;https://hofladen.info/hofladen/bernhard-kerkmann
Spargelhof Thiermann;Scharringhausen 23;27245;Kirchdorf;Niedersachsen;Deutschland;52.588828;8.805433;https://hofladen.info/hofladen/spargelhof-thiermann
Spargelhof Kisters;Kevelaerer Str. 6;47608;Geldern;Nordrhein-Westfalen;Deutschland;51.498682;6.243799;https://hofladen.info/hofladen/spargelhof-kisters
Sonnengut Gerster;Dietrichsroda 16;6632;Balgstädt;Sachsen-Anhalt;Deutschland;51.175750;11.622670;https://hofladen.info/hofladen/sonnengut-gerster
Nußlocher Ziegenkäsehof;;69226;Nußloch;Baden-Württemberg;Deutschland;49.317460;8.703350;https://hofladen.info/hofladen/nu%C3%9Flocher-ziegenkasehof
Geflügelhof Stutz e.K.;Bibersstr. 17;74523;Schwäbisch Hall;Baden-Württemberg;Deutschland;49.079810;9.688520;https://hofladen.info/hofladen/geflugelhof-stutz-e-k
Hofladen Früchtenicht;Völkerser Landstraße 45;27299;Langwedel;Niedersachsen;Deutschland;53.003907;9.231112;https://hofladen.info/hofladen/hofladen-fruchtenicht
Schmidt´s Most Besen;Eckarrot 3;74586;Frankenhardt;Baden-Württemberg;Deutschland;49.053260;10.064160;https://hofladen.info/hofladen/schmidt%C2%B4s-most-besen
Langenburger Schafkäserei;Breberweg 2;74595;Langenburg;Baden-Württemberg;Deutschland;49.241670;9.861280;https://hofladen.info/hofladen/langenburger-schafkaserei
Völkleswaldhof;Völkleswaldweg 5;74420;Oberrot;Baden-Württemberg;Deutschland;49.006810;9.695280;https://hofladen.info/hofladen/volkleswaldhof
Spargelhof Santelmann;Burgstr. 20;29342;Wienhausen;Niedersachsen;Deutschland;52.576847;10.281899;https://hofladen.info/hofladen/spargelhof-santelmann
Claus-Dieter Wejlupek;Blumenlage 32;29683;Bad Fallingbostel;Niedersachsen;Deutschland;52.878520;9.702839;https://hofladen.info/hofladen/claus-dieter-wejlupek
Syringhof;Trebbiner Straße 69f;14547;Beelitz;Brandenburg;Deutschland;52.215990;13.060020;https://hofladen.info/hofladen/syringhof
Kornblume;Regenbacher Weg 5;74653;Künzelsau - Laßbach;Baden-Württemberg;Deutschland;49.265390;9.810030;https://hofladen.info/hofladen/kornblume
Erdhof Seewalde;Seewalde 2;17255;Wustrow;Mecklenburg-Vorpommern;Deutschland;53.226200;12.932600;https://hofladen.info/hofladen/erdhof-seewalde
Gut Wulksfelde;Wulksfelder Damm 15-17;22889;Tangstedt;Niedersachsen;Deutschland;53.717814;10.111642;https://hofladen.info/hofladen/gut-wulksfelde
Hirschles Biohof;Schönewaldstraße 4;34326;Morschen;Hessen;Deutschland;51.084343;9.632499;https://hofladen.info/hofladen/hirschles-biohof
Spargelhof Elsholz;Bahnhofsweg 2a;14547;Beelitz;Brandenburg;Deutschland;52.204491;12.952337;https://hofladen.info/hofladen/spargelhof-elsholz
Gut Pesterwitz;An der Winzerei 1b;1705;Freital ;Sachsen;Deutschland;51.027130;13.651151;https://hofladen.info/hofladen/gut-pesterwitz
Honigmanufaktur Spatzenhof;Spatzenhof 28;71543;Wüstenrot;Baden-Württemberg;Deutschland;49.093165;9.456871;https://hofladen.info/hofladen/honigmanufaktur-spatzenhof-2
Erdesbacher Ziegenkäse;Eckweg 2;66887;Erdesbach;Rheinland-Pfalz;Deutschland;49.574220;7.443520;https://hofladen.info/hofladen/erdesbacher-ziegenkase
Hof Göllner;Gadesbünden 7;31622;Heemsen;Niedersachsen;Deutschland;52.713870;9.273587;https://hofladen.info/hofladen/hof-gollner
Gärtnerei Sommerfeld ;Kuhzer Weg 5;17268;Boitzenburger Land;Brandenburg;Deutschland;53.243019;13.645601;https://hofladen.info/hofladen/gartnerei-sommerfeld
Boitzenburger Früchtezauber;Wichmannsdorfer Straße 4;17268;Boitzenburger Land;Brandenburg;Deutschland;53.260023;13.611497;https://hofladen.info/hofladen/boitzenburger-fruchtezauber
Vilstal Schäfer;Spitzenberg 48;84137;Vilsbiburg;Bayern;Deutschland;48.475600;12.322760;https://hofladen.info/hofladen/vilstal-schafer
Limousinhof Klemm;Hauptstrasse 70A;1762;Hartmannsdorf;Sachsen;Deutschland;50.886638;12.800979;https://hofladen.info/hofladen/limousinhof-klemm
Heesehof;Schöninger Str. 4;38382;Beierstedt;Niedersachsen;Deutschland;52.073620;10.858720;https://hofladen.info/hofladen/heesehof
Milchschafhof Pimpinelle;Lindenstraße 20;15320;Quappendorf;Brandenburg;Deutschland;52.619520;14.265710;https://hofladen.info/hofladen/milchschafhof-pimpinelle
Wohlenberger Sanddornhofladen;An der Chausse 15;23948;Wohlenberg;Mecklenburg-Vorpommern;Deutschland;53.940630;11.239490;https://hofladen.info/hofladen/wohlenberger-sanddornhofladen
Birkenhof;Birkenhöfe 3;74677;Dörzbach;Baden-Württemberg;Deutschland;49.384540;9.725770;https://hofladen.info/hofladen/birkenhof-3
Ostermeierhof;Ostermeierstraße 24;27324;Hassel;Niedersachsen;Deutschland;52.797760;9.209250;https://hofladen.info/hofladen/ostermeierhof
Biohof Franke;Leipziger Straße 215;8451;Crimmitschau;Sachsen;Deutschland;50.838738;12.390645;https://hofladen.info/hofladen/biohof-franke
Spargelhof Falkenthal;Kietz 31;14547;Beelitz;Brandenburg;Deutschland;52.245790;13.021000;https://hofladen.info/hofladen/spargelhof-falkenthal
Hofkäserei;Dürrnast 17;74535;Mainhardt;Baden-Württemberg;Deutschland;49.111540;9.571810;https://hofladen.info/hofladen/hofkaserei
Hof Meyerholz;Holzbaden 34   ;28832 ;Achim;Niedersachsen;Deutschland;53.002805;9.094964;https://hofladen.info/hofladen/hof-meyerholz
Auleber Obstmanufaktur ;Gneisenaustr. 20 ;39393;Hötensleben;Sachsen-Anhalt;Deutschland;52.122660;11.017510;https://hofladen.info/hofladen/auleber-obstmanufaktur
Hof im Greth ;Im Greth 1 - Lesser Straße;31185;Söhlde;Niedersachsen;Deutschland;52.183440;10.233400;https://hofladen.info/hofladen/hof-im-greth
Biohof Eilte;Großer Garten 6;29693;Ahlden;Niedersachsen;Deutschland;52.761280;9.498260;https://hofladen.info/hofladen/biohof-eilte
Kehrbachs Hof;An Der Alpe 1 ;31535 ;Neustadt am Rübenberge;Niedersachsen;Deutschland;52.626306;9.484925;https://hofladen.info/hofladen/kehrbachs-hof
AGP Lübesse;An der Kartoffelhalle 3;19077;Sülte;Mecklenburg-Vorpommern;Deutschland;53.504870;11.424640;https://hofladen.info/hofladen/agp-lubesse
Geflügelhof Breisch;Binselberg 22;74582;Gerabronn;Baden-Württemberg;Deutschland;49.233881;9.881460;https://hofladen.info/hofladen/geflugelhof-breisch
Hof Frien;Höfen 13;31600;Uchte;Niedersachsen;Deutschland;52.474333;8.908718;https://hofladen.info/hofladen/hof-frien
Elbers Hof;An der Kirche 5;29559;Nettelkamp;Niedersachsen;Deutschland;52.881220;10.583570;https://hofladen.info/hofladen/elbers-hof
Die Dobbertiner;Schulstraße 17;19399;Dobbertin;Mecklenburg-Vorpommern;Deutschland;53.619925;12.062931;https://hofladen.info/hofladen/die-dobbertiner
Rosenhof;Rosenbühl 21;74424;Bühlertann;Baden-Württemberg;Deutschland;49.038540;9.908920;https://hofladen.info/hofladen/rosenhof
Obsthof Schörlin;Am Tischligweg 40;79588;Efringen-Kirchen;Baden-Württemberg;Deutschland;47.676567;7.549666;https://hofladen.info/hofladen/obsthof-schorlin
Bioland-Hof Kleincomburg GbR;Kleincomburger Weg 50;74523;Schwäbisch Hall;Baden-Württemberg;Deutschland;49.096678;9.749572;https://hofladen.info/hofladen/bioland-hof-kleincomburg-gbr
Fahner Frucht;Große Hecke 2;99100;Gierstädt;Thüringen;Deutschland;51.043501;10.824788;https://hofladen.info/hofladen/fahner-frucht
Landmetzgerei Wieland;Dürrnast 4;74535;Mainhardt;Baden-Württemberg;Deutschland;49.113162;9.566831;https://hofladen.info/hofladen/landmetzgerei-wieland
Rebenhof Ferdinand Fröscher;Weißbacher Str.6;74670;Forchtenberg;Baden-Württemberg;Deutschland;49.289343;9.565147;https://hofladen.info/hofladen/rebenhof-ferdinand-froscher
Gut Werrabronn;Werrabronn;76356;Weingarten;Baden-Württemberg;Deutschland;49.032211;8.516622;https://hofladen.info/hofladen/gut-werrabronn
Sanddorn-Garten Petzow;Fercher Straße 60;14542;Werder;Brandenburg;Deutschland;52.345290;12.943790;https://hofladen.info/hofladen/sanddorn-garten-petzow
Landi GmbH;Stapelburger Straße 12;38871;Veckenstedt;Sachsen-Anhalt;Deutschland;51.900760;10.721530;https://hofladen.info/hofladen/landi-gmbh
Landimkerei Garten;Oberersdorfer Str. 2;01920;Haselbachtal;Sachsen;Deutschland;51.225068;14.058530;https://hofladen.info/hofladen/landimkerei-garten
Schafmilchkäserei Jaare ;Wiesenweg 1 ;39264;Lindau;Sachsen-Anhalt;Deutschland;52.040594;12.114655;https://hofladen.info/hofladen/schafmilchkaserei-jaare
HOF DÖRKES;Stadtfeld 45 St.Hubert-Vösch;47906;Kempen;Nordrhein-Westfalen;Deutschland;51.387804;6.418591;https://hofladen.info/hofladen/hof-dorkes
Hof Domanja;Hoske 44;2997;Wittichenau;Sachsen;Deutschland;51.364382;14.264740;https://hofladen.info/hofladen/hof-domanja
Imkerei Mattfeld;Grünstr. 6;29664;Walsrode;Niedersachsen;Deutschland;52.865043;9.588132;https://hofladen.info/hofladen/imkerei-mattfeld
Straußenfarm Ostseeblick;Ostseering 11;24257;Hohenfelde;Schleswig-Holstein;Deutschland;54.374960;10.521820;https://hofladen.info/hofladen/strau%C3%9Fenfarm-ostseeblick
Reutebachhof;Reutebachhof 1;74426;Geifertshofen;Baden-Württemberg;Deutschland;49.004420;9.884840;https://hofladen.info/hofladen/reutebachhof
Gut Dobersdorf;Gut Dobersdorf ;24232 ;Dobersdorf;Schleswig-Holstein;Deutschland;54.322820;10.289247;https://hofladen.info/hofladen/gut-dobersdorf
Gläserne Waldimkerei;Am Wolfsgarten 5;16792;Zehdenick;Brandenburg;Deutschland;52.997494;13.349892;https://hofladen.info/hofladen/glaserne-waldimkerei
Lenzbauer Naturland-Hof;Landshuter Straße 18;93354;Siegenburg;Bayern;Deutschland;48.752730;11.852270;https://hofladen.info/hofladen/lenzbauer-naturland-hof
Spargelgut Meyer;Sattelhof 8;29693;Kirchwahlingen;Niedersachsen;Deutschland;52.783760;9.414290;https://hofladen.info/hofladen/spargelgut-meyer
Lavendel Grimme;Bergstrasse 1 ;17326 ;Bruessow;Brandenburg;Deutschland;53.399320;14.126720;https://hofladen.info/hofladen/lavendel-grimme
Landgut Schönwalde;Dorfstraße 31;14621;Schönwalde-Glien;Brandenburg;Deutschland;52.621542;13.126038;https://hofladen.info/hofladen/landgut-schonwalde
Gut Adolphshof;;31275;Lehrte;Niedersachsen;Deutschland;52.374620;9.978420;https://hofladen.info/hofladen/gut-adolphshof
Naturhof Engel;Schönnbronn 4;74426;Bühlerzell-Schönbronn;Baden-Württemberg;Deutschland;48.986320;9.954682;https://hofladen.info/hofladen/naturhof-engel
Mühlenbach Hofladen;Gottschalskmühlenweg 22;56637 ;Plaidt ;Rheinland-Pfalz;Deutschland;50.382843;7.384645;https://hofladen.info/hofladen/muhlenbach-hofladen
Weingut Birkert;Unterheimbacher Str. 28;74626;Bretzfeld;Baden-Württemberg;Deutschland;49.163954;9.450162;https://hofladen.info/hofladen/weingut-birkert
Regenbogenhof;Alte Bahnhofstraße 6;17291;Nordwestuckermark;Brandenburg;Deutschland;53.396419;13.692768;https://hofladen.info/hofladen/regenbogenhof
Märkischer Hofladen;Dorfstraße 1a ;14641 ;Paulinenaue;Brandenburg;Deutschland;52.633410;12.714422;https://hofladen.info/hofladen/markischer-hofladen
Hoflädle Ochsental;Mäusberger Str. 13;74673;Mulfingen;Baden-Württemberg;Deutschland;49.347830;9.834070;https://hofladen.info/hofladen/hofladle-ochsental
Zick de Hohenlohe;Klingenstraße 23;74532;Ilshofen-Unteraspach;Baden-Württemberg;Deutschland;49.142722;9.893672;https://hofladen.info/hofladen/zick-de-hohenlohe
Weingut Heinz J. Schwab;Wassergasse 4;74626;Bretzfeld;Baden-Württemberg;Deutschland;49.169473;9.386116;https://hofladen.info/hofladen/weingut-heinz-j-schwab
Villa Kunterbunt;Zinnowitzer Str. 6 ;17440 ;Neuendorf;Mecklenburg-Vorpommern;Deutschland;54.034612;13.889078;https://hofladen.info/hofladen/villa-kunterbunt
Klangens Hof;Höperhöfen 15 ;27367 ;Bötersen;Niedersachsen;Deutschland;53.142419;9.301961;https://hofladen.info/hofladen/klangens-hof
Der Auenhof;Potsdamer Landstrasse 11;14641;Wustermark;Brandenburg;Deutschland;52.513907;12.934566;https://hofladen.info/hofladen/der-auenhof
Ökodorf Brodowin Dorfladen;Weißensee 1;16230;Chorin;Brandenburg;Deutschland;52.915410;13.941750;https://hofladen.info/hofladen/okodorf-brodowin-dorfladen
Hofladen Bißbort;Hochwaldstr. 5;66954;Pirmasens;Rheinland-Pfalz;Deutschland;49.213129;7.537476;https://hofladen.info/hofladen/hofladen-bi%C3%9Fbort
Wildhof am Weinberg;Krahner Straße 7;14797 ;Kloster Lehnin;Brandenburg;Deutschland;52.334808;12.550595;https://hofladen.info/hofladen/wildhof-am-weinberg
Weinmanufaktur Ingelfinger Fass;Schloßstr. 14;74653;Ingelfingen;Baden-Württemberg;Deutschland;49.300802;9.652167;https://hofladen.info/hofladen/weinmanufaktur-ingelfinger-fass
Wildhof Müncheberg;Florastraße 21;15374;Müncheberg;Brandenburg;Deutschland;52.505095;14.115982;https://hofladen.info/hofladen/wildhof-muncheberg
Ringlihof;Katzentalweg 1;79289;Horben;Baden-Württemberg;Deutschland;47.937610;7.844010;https://hofladen.info/hofladen/ringlihof
Osterland Teuchern;Straße nach Trebnitz 12;06682;Teuchern;Sachsen-Anhalt;Deutschland;51.110560;12.037260;https://hofladen.info/hofladen/osterland-teuchern
Bauer Ziegs;Chemnitzer Str. 78;9387;Jahnsdorf;Sachsen;Deutschland;50.744556;12.852183;https://hofladen.info/hofladen/bauer-ziegs
Hopfgartner Honig;Siedlerweg 10;9429;Hopfgarten;Sachsen;Deutschland;50.679843;13.061180;https://hofladen.info/hofladen/hopfgartner-honig
Gärtnerhof Staudenmüller; Askanische Straße 1;17268;Templin;Brandenburg;Deutschland;53.052932;13.528121;https://hofladen.info/hofladen/gartnerhof-staudenmuller
Wild & Taste;Neudessauer Straße 12;14715;Milower Land;Brandenburg;Deutschland;52.511980;12.304400;https://hofladen.info/hofladen/wild-taste
Klausenhof;Waldstetter Weg 1;73529;Schwäbisch Gmünd;Baden-Württemberg;Deutschland;48.752990;9.798730;https://hofladen.info/hofladen/klausenhof
Hausler Hof;Garchinger Weg 72;85399;Hallbergmoos;Bayern;Deutschland;48.290416;11.720592;https://hofladen.info/hofladen/hausler-hof
Martinshof;In der Brombach 6;66606;St. Wendel;Saarland;Deutschland;49.493210;7.272490;https://hofladen.info/hofladen/martinshof
Schluchters Weinstube;Ruländerweg 3;74629;Pfedelbach;Baden-Württemberg;Deutschland;49.170958;9.527179;https://hofladen.info/hofladen/schluchters-weinstube
Gurken Paule;Schlossinsel Hafen 1;15907;Lübben;Brandenburg;Deutschland;51.940169;13.899049;https://hofladen.info/hofladen/gurken-paule
Gut Herrenhölzer;Gutsstraße 1;14789;Bensdorf;Brandenburg;Deutschland;52.402042;12.336489;https://hofladen.info/hofladen/gut-herrenholzer
Rittergut Binsförth;Rittergut 1;34326;Morschen;Hessen;Deutschland;51.070980;9.572000;https://hofladen.info/hofladen/rittergut-binsforth
Hofladen mit Räucherei;Talmühle 1;9638;Lichtenberg;Sachsen;Deutschland;50.848977;13.399116;https://hofladen.info/hofladen/hofladen-mit-raucherei
Hof Barmbach;Hof Barmbach;65611;Brechen;Hessen;Deutschland;50.368687;8.189853;https://hofladen.info/hofladen/hof-barmbach
Biohof Groß-Bölting;Borkener Strasse 10;46499;Hamminkeln;Nordrhein-Westfalen;Deutschland;51.754920;6.669930;https://hofladen.info/hofladen/biohof-gro%C3%9F-bolting
Eggs-klusiv;Stöcken 5 ;96215 ;Lichtenfels;Bayern;Deutschland;50.173943;11.072859;https://hofladen.info/hofladen/eggs-klusiv
Voelckes Hofladen;Wernigeröder Str. 61 ;39118;Magdeburg;Sachsen-Anhalt;Deutschland;52.099030;11.597470;https://hofladen.info/hofladen/voelckes-hofladen
AGROSS Hofladen;Großstolpen Nr. 6;4539;Groitzsch;Sachsen;Deutschland;51.142866;12.327303;https://hofladen.info/hofladen/agross-hofladen
Hofladen Kampe;Glockenstr. 24 ;28857 ;Syke;Niedersachsen;Deutschland;52.937468;8.823623;https://hofladen.info/hofladen/hofladen-kampe
Agrargenossenschaft Querfurt ;Ahornstraße 27 ;6268;Querfurt;Sachsen-Anhalt;Deutschland;51.377396;11.614395;https://hofladen.info/hofladen/agrargenossenschaft-querfurt
Finther Obstlädchen;Kurmainzstr. 10;55126;Mainz;Rheinland-Pfalz;Deutschland;49.983526;8.176025;https://hofladen.info/hofladen/finther-obstladchen
Obstbau Menzel;Hauptstraße 55;1877;Rammenau;Sachsen;Deutschland;51.151516;14.148441;https://hofladen.info/hofladen/obstbau-menzel
Gut Hirschaue;An der Hirschaue 2;15848;Rietz-Neuendorf;Brandenburg;Deutschland;52.200218;14.192690;https://hofladen.info/hofladen/gut-hirschaue
Prokräuter;Widmannsried 1b;87480;Weitnau - Wengen;Bayern;Deutschland;47.679520;10.166500;https://hofladen.info/hofladen/prokrauter
Griesels Milchhof;Oberster Riedsweg 1;34281;Gudensberg;Hessen;Deutschland;51.166202;9.342907;https://hofladen.info/hofladen/griesels-milchhof
Obsthof Wagner;Dieglishofen 1;88069;Dieglishofen;Baden-Württemberg;Deutschland;47.685142;9.601889;https://hofladen.info/hofladen/obsthof-wagner
Brennerei Günter Hammel;Landenbacher Str. 1;97996;Niederstetten;Baden-Württemberg;Deutschland;49.421520;9.919145;https://hofladen.info/hofladen/brennerei-gunter-hammel
Agrofarm Nauen;Brandenburger Chaussee 19 ;14641 ;Nauen;Brandenburg;Deutschland;52.596578;12.838605;https://hofladen.info/hofladen/agrofarm-nauen
Straußenhof Striegistal;Mühlstraße 16;9661;Striegistal;Sachsen;Deutschland;50.996468;13.173885;https://hofladen.info/hofladen/strau%C3%9Fenhof-striegistal
Galloway vom Preußenhof;Am Dröbel 10;16909;Heiligengrabe;Brandenburg;Deutschland;53.141510;12.343040;https://hofladen.info/hofladen/galloway-vom-preu%C3%9Fenhof
Damwildgehege Waldenburg;Hauptstraße 102;74638;Waldenburg;Baden-Württemberg;Deutschland;49.185860;9.639140;https://hofladen.info/hofladen/damwildgehege-waldenburg
Knolle & Bolle;Ziemkendorfer Straße 10;17291;Grünow;Brandenburg;Deutschland;53.313000;13.984313;https://hofladen.info/hofladen/knolle-bolle
Hof Pleus;Henstedter Str. 15;27243 ;Prinzhöfte;Niedersachsen;Deutschland;52.967382;8.556820;https://hofladen.info/hofladen/hof-pleus
Früchtle vom Schmidener Feld;Höhe 1;70736;Fellbach;Baden-Württemberg;Deutschland;48.818891;9.254811;https://hofladen.info/hofladen/fruchtle-vom-schmidener-feld
Biohof Klügel;Deubener Weg 30;01705;Freital;Sachsen;Deutschland;50.997018;13.615762;https://hofladen.info/hofladen/biohof-klugel
Stapf's Hoflädle;Birkenhöfe 2;74626;Bretzfeld ;Baden-Württemberg;Deutschland;49.189550;9.426070;https://hofladen.info/hofladen/stapf-s-hofladle
Straußenhof Berkenlatten;Berkenlatten 7;17268;Gerswalde;Brandenburg;Deutschland;53.140410;13.758550;https://hofladen.info/hofladen/strau%C3%9Fenhof-berkenlatten
Thomahof Brandl;Brandl 4 ;83549 ;Königsdorf;Bayern;Deutschland;47.816392;11.481009;https://hofladen.info/hofladen/thomahof-brandl
So Bio Laden-Weckelweiler Werkstätten;Heinstr. 16;74592 ;Kirchberg/Jagst;Baden-Württemberg;Deutschland;49.206091;9.983054;https://hofladen.info/hofladen/so-bio-laden-weckelweiler-werkstatten
Lübbes Kartoffelscheune;Dorfstr. 29;31303;Burgdorf;Niedersachsen;Deutschland;52.443710;9.976520;https://hofladen.info/hofladen/lubbes-kartoffelscheune
Damwildhof Jäger;Bergweg 5;97514 ;Oberaurach;Bayern;Deutschland;49.928420;10.650820;https://hofladen.info/hofladen/damwildhof-jager
Harkopfs Hofladen;Rodenberger Straße 20;31655;Stadthagen;Niedersachsen;Deutschland;52.315677;9.237331;https://hofladen.info/hofladen/harkopfs-hofladen
Hofkäserei Moser;Ittendorfer Straße 16;88697;Bermatingen-Ahausen;Baden-Württemberg;Deutschland;47.721177;9.325096;https://hofladen.info/hofladen/hofkaserei-moser
Birkenhof;Birkenhof;72411;Bodelshausen;Baden-Württemberg;Deutschland;48.405540;8.972970;https://hofladen.info/hofladen/birkenhof
Direktvermarktung Gebhardt - Fisch - Fleisch - Forellenzucht;Schafgasse 9 Fisch - Fleisch - Forellenzucht;99820;Hörselberg-Hainich;Thüringen;Deutschland;50.944574;10.478939;https://hofladen.info/hofladen/direktvermarktung-gebhardt-fisch-fleisch-forellenzucht
Agrar GmbH Kraatz;Buberower Weg 10;16775;Gransee;Brandenburg;Deutschland;52.973950;13.187977;https://hofladen.info/hofladen/agrar-gmbh-kraatz
Eltersdorfer Hofladen;Weinstraße 30 ;91058 ;Erlangen;Bayern;Deutschland;49.552514;11.000640;https://hofladen.info/hofladen/eltersdorfer-hofladen
Obst- und Gemüsehof Müller;Große Gaß 11;79576;Weil a. Rh.;Baden-Württemberg;Deutschland;47.615521;7.617894;https://hofladen.info/hofladen/obst-und-gemusehof-muller
Ziegenhof Schleckweda;Elsterweg 4;06722;Wetterzeube;Sachsen-Anhalt;Deutschland;51.009840;12.023410;https://hofladen.info/hofladen/ziegenhof-schleckweda
Agrarhof Gospersgrün;Schulstr. 1;8427;Fraureuth;Sachsen;Deutschland;50.680913;12.363245;https://hofladen.info/hofladen/agrarhof-gospersgrun
Braunsberger Höfe;Dorfstraße 26;16818;Braunsberg;Brandenburg;Deutschland;53.049232;12.834325;https://hofladen.info/hofladen/braunsberger-hofe
Weingut Braun;Scheuerntorstr. 20;97980;Bad Mergentheim;Baden-Württemberg;Deutschland;49.475000;9.830821;https://hofladen.info/hofladen/weingut-braun
Gemüsehof Pohl;Merzenicher Straße 5;50170;Kerpen;Nordrhein-Westfalen;Deutschland;50.859720;6.579905;https://hofladen.info/hofladen/gemusehof-pohl
Detzels Hofladen;Wiesenholz 1;88267;Vogt;Baden-Württemberg;Deutschland;48.094524;11.798933;https://hofladen.info/hofladen/detzels-hofladen
Oderbruch Hof;Rathstocker Str. 6;15328;Alt Tucheband;Brandenburg;Deutschland;52.537160;14.513660;https://hofladen.info/hofladen/oderbruch-hof
Tierfairbrik;Falkenberger Str. 2;34576;Hombergshausen;Hessen;Deutschland;51.071430;9.439320;https://hofladen.info/hofladen/tierfairbrik
Ziegenalm Sophienhof;Dorfstr. 44;99768;Sophienhof ;Thüringen;Deutschland;51.633270;10.789960;https://hofladen.info/hofladen/ziegenalm-sophienhof
Geflügelhof Michael Pfefferle;Emil Thoma Str. 35;75031;Eppingen;Baden-Württemberg;Deutschland;49.143181;8.902020;https://hofladen.info/hofladen/geflugelhof-michael-pfefferle
Hofkäserei Heggelbach;Heggelbach 8;88634;Herdwangen;Baden-Württemberg;Deutschland;47.850780;9.139240;https://hofladen.info/hofladen/hofkaserei-heggelbach
Spargelhof Kiefer;Schmachtenhagener Straße 11;16515;Oranienburg;Brandenburg;Deutschland;52.779031;13.358958;https://hofladen.info/hofladen/spargelhof-kiefer
Imkerei Gempp;Wehratalstr. 3;79650;Schopfheim;Baden-Württemberg;Deutschland;47.697278;7.932587;https://hofladen.info/hofladen/imkerei-gempp
Gemüsebau Lang;Hintere Dorfstraße 7;79588;Wintersweiler ;Baden-Württemberg;Deutschland;47.674708;7.565801;https://hofladen.info/hofladen/gemusebau-lang
Becker´s Hofladen;Amtmännerwiesen Gewann 5;76199;Karlruhe;Baden-Württemberg;Deutschland;48.964444;8.389167;https://hofladen.info/hofladen/becker%C2%B4s-hofladen
Biolandhof Krug;Knallhütterstrasse 32;34225;Baunatal;Hessen;Deutschland;51.258212;9.451680;https://hofladen.info/hofladen/biolandhof-krug
Bürgin Hof Binzen;Rümmingerstrasse 10;79589;Binzen;Baden-Württemberg;Deutschland;47.616858;7.654304;https://hofladen.info/hofladen/burgin-hof-binzen
Agrozuchtfarm Breitenau;Straße des Friedens 90;9569;Oederan;Sachsen;Deutschland;50.843660;13.163360;https://hofladen.info/hofladen/agrozuchtfarm-breitenau
Haltinger Winzer;Winzerweg 8;79576;Weil-Haltingen;Baden-Württemberg;Deutschland;47.616695;7.618256;https://hofladen.info/hofladen/haltinger-winzer
Richards Wild;Fürstenberger Straße 2;16775;Gransee;Brandenburg;Deutschland;53.076518;13.181918;https://hofladen.info/hofladen/richards-wild
Spreewaldhof Niewitz;Dorfstr. 112;15910;Bersteland;Brandenburg;Deutschland;51.937867;13.782631;https://hofladen.info/hofladen/spreewaldhof-niewitz
Spargel- und Heidelbeerhof Backhaus;Lange Straße 35;31628;Landesbergen;Niedersachsen;Deutschland;52.557900;9.119645;https://hofladen.info/hofladen/spargel-und-heidelbeerhof-backhaus
Templiner Landprodukte;Lychener Str. 28;17268;Templin;Brandenburg;Deutschland;53.127410;13.486662;https://hofladen.info/hofladen/templiner-landprodukte
Hofladen Heß;Ziegelstr. 3;71720;Oberstenfeld;Baden-Württemberg;Deutschland;49.022806;9.325062;https://hofladen.info/hofladen/hofladen-he%C3%9F
Milchhof Werning;Heideweg 24;33154;Salzkotten;Nordrhein-Westfalen;Deutschland;51.718760;8.625230;https://hofladen.info/hofladen/milchhof-werning
Bruckrainhof ;Alte Kanderner Str. 2;79595;Rümmingen;Baden-Württemberg;Deutschland;47.643200;7.635333;https://hofladen.info/hofladen/bruckrainhof
Kattendorfer Hof;Dorfstraße 1a;24568;Kattendorf;Schleswig-Holstein;Deutschland;53.845270;10.022620;https://hofladen.info/hofladen/kattendorfer-hof
Hofgut Amalienberg;Amalienberg 1;76571 ;Gaggenau;Baden-Württemberg;Deutschland;48.802960;8.317267;https://hofladen.info/hofladen/hofgut-amalienberg
Wacholderhof;;65346 ;Eltville;Hessen;Deutschland;50.043415;8.048705;https://hofladen.info/hofladen/wacholderhof
Erdbeerplantage Habenicht;Donnerstedter Weg 4;27321;Thedinghausen;Niedersachsen;Deutschland;52.952481;8.972898;https://hofladen.info/hofladen/erdbeerplantage-habenicht
Zur Tabakblüte;Dorfstraße 27a;16307;Gartz/O;Brandenburg;Deutschland;53.158860;14.346370;https://hofladen.info/hofladen/zur-tabakblute
S´Milch-Häusle Langenbeutingen;Lindenhof 1 (Im Stegle);74243;Langenbrettach;Baden-Württemberg;Deutschland;49.218470;9.414935;https://hofladen.info/hofladen/s%C2%B4milch-hausle-langenbeutingen
Rhönhof Henkel;Mahlertsmühle 3;36145;Hofbieber;Hessen;Deutschland;50.607660;9.938930;https://hofladen.info/hofladen/rhonhof-henkel
Le Quartier Christ;Hornbach 5;67433;Neustadt / Weinstraße;Rheinland-Pfalz;Deutschland;49.342096;8.167032;https://hofladen.info/hofladen/le-quartier-christ
Marienhof Erfurt;Leipziger Str. 158;99085;Erfurt;Thüringen;Deutschland;50.996357;11.071478;https://hofladen.info/hofladen/marienhof-erfurt
Hof Mügge;Postberg 1;27313;Dörverden;Niedersachsen;Deutschland;52.848850;9.227236;https://hofladen.info/hofladen/hof-mugge
Schwerdtners Spreewaldmarkt;Dammstr. 81;03222;Lübbenau;Brandenburg;Deutschland;51.867938;13.971898;https://hofladen.info/hofladen/schwerdtners-spreewaldmarkt
Bruns Beerenobst;Köbens 1;28876;Oyten;Niedersachsen;Deutschland;53.072324;9.093278;https://hofladen.info/hofladen/bruns-beerenobst
Biohof Stövesandt;Hagen 8;29303;Bergen;Niedersachsen;Deutschland;52.824396;9.966916;https://hofladen.info/hofladen/biohof-stovesandt
Honhardter Demeterhöfe;Ostweg 15;74586;Frankenhardt;Baden-Württemberg;Deutschland;49.069930;10.044490;https://hofladen.info/hofladen/honhardter-demeterhofe
Milchtankstelle Familie Bäumlisberger;Erlin 5;74545;Michelfeld;Baden-Württemberg;Deutschland;49.105890;9.656340;https://hofladen.info/hofladen/milchtankstelle-familie-baumlisberger
Glinder Ziegenhof ;Dorfstraße 80 ;39249;Glinde;Sachsen-Anhalt;Deutschland;52.009070;11.848790;https://hofladen.info/hofladen/glinder-ziegenhof
Hof Dannwisch;Dannwisch 1;25358;Horst;Niedersachsen;Deutschland;53.798350;9.615310;https://hofladen.info/hofladen/hof-dannwisch
Püllens Hofladen;Hermannshof;52388;Nörvenich;Nordrhein-Westfalen;Deutschland;50.810913;6.577609;https://hofladen.info/hofladen/pullens-hofladen
Biolandhof Gutheiß;Stegwiesenstraße 93;74423;Obersontheim;Baden-Württemberg;Deutschland;49.071460;9.882327;https://hofladen.info/hofladen/biolandhof-guthei%C3%9F
Thiele's Milchtankstelle;Wehretalstr. 8;37269;Eschwege;Hessen;Deutschland;51.184837;10.004316;https://hofladen.info/hofladen/thiele-s-milchtankstelle
Milchzapfstelle Flade;Obere Dorfstraße 15;1723;Helbigsdorf;Sachsen;Deutschland;51.030560;13.475220;https://hofladen.info/hofladen/milchzapfstelle-flade
Biolandhof Voigt;Willschütz 13;7619;Schkölen;Thüringen;Deutschland;51.017770;11.821660;https://hofladen.info/hofladen/biolandhof-voigt
Fläming Wildhandel Gmbh Griebsch&Griebsch;Bardenitzer Dorfstraße 56;14929;Treuenbrietzen;Brandenburg;Deutschland;52.075260;12.942830;https://hofladen.info/hofladen/flaming-wildhandel-gmbh-griebsch-griebsch
Brunnenhof Bio-Geflügel;Hohe Straße 25;74653;Künzelsau;Baden-Württemberg;Deutschland;49.272957;9.778433;https://hofladen.info/hofladen/brunnenhof-bio-geflugel
Bioland-Imkerei Ralf Berghane;Laurentiusstr. 5;45899;Gelsenkirchen;Nordrhein-Westfalen;Deutschland;51.525070;7.025900;https://hofladen.info/hofladen/bioland-imkerei-ralf-berghane
Weingut Heinrich;Kümmelstr. 2;74182;Obersulm-Sülzbach;Baden-Württemberg;Deutschland;49.145420;9.343420;https://hofladen.info/hofladen/weingut-heinrich
Hofkäserei Horn;Hauptstraße 81;9430;Drebach;Sachsen;Deutschland;50.672840;13.019110;https://hofladen.info/hofladen/hofkaserei-horn
Inselhof;Am Mühlplatz 18;37318;Dietzenrode;Thüringen;Deutschland;51.298240;10.015240;https://hofladen.info/hofladen/inselhof
Hof Rengstorf;Benzen 6 ;29664 ;Walsrode;Niedersachsen;Deutschland;52.832866;9.580981;https://hofladen.info/hofladen/hof-rengstorf
Obsthof Harms ;Hohenwischer Straße 107 ;21129;Hamburg;Hamburg;Deutschland;53.507910;9.872630;https://hofladen.info/hofladen/obsthof-harms
Bauernhof Franz;Dorfstraße 12;1156;Dresden;Sachsen;Deutschland;51.094630;13.642750;https://hofladen.info/hofladen/bauernhof-franz
Alhusen Spargelplantagen;Mahlen 2;27324;Eystrup;Niedersachsen;Deutschland;52.785253;9.200345;https://hofladen.info/hofladen/alhusen-spargelplantagen
Bio-Imkerei Ullrich Burmeister;Berliner Allee 18;14547;Beelitz;Brandenburg;Deutschland;52.272229;12.896538;https://hofladen.info/hofladen/bio-imkerei-ullrich-burmeister
Geflügelhof Berger;Grünhainichener Str. 51;9573;Leubsdorf;Sachsen;Deutschland;50.790930;13.135032;https://hofladen.info/hofladen/geflugelhof-berger
Beerenhof Lohse;Rodewalder Straße 36;29690;Gilten;Niedersachsen;Deutschland;52.702927;9.545635;https://hofladen.info/hofladen/beerenhof-lohse
Steinhäußers Hofladen;Haager Str.16;74653;Künzelsau;Baden-Württemberg;Deutschland;49.257466;9.687688;https://hofladen.info/hofladen/steinhau%C3%9Fers-hofladen
Armin Wacker;Bogenstr.5;74599;Wallhausen-Asbach;Baden-Württemberg;Deutschland;49.227280;10.094750;https://hofladen.info/hofladen/armin-wacker
Hielscher Hof;Krähwinkel 4;42799;Leichlingen;Nordrhein-Westfalen;Deutschland;51.112954;7.100069;https://hofladen.info/hofladen/hielscher-hof
Knospenhof;Bergstraße 8;54317;Herl;Rheinland-Pfalz;Deutschland;49.731270;6.823390;https://hofladen.info/hofladen/knospenhof
Hofkäserei Büttner;Oststraße 2;7958;Hohenleuben;Thüringen;Deutschland;50.711741;12.058525;https://hofladen.info/hofladen/hofkaserei-buttner
Schäferhof Seb & Karla Schäfer;Rehbergstr. 63;51709;Marienheide;Nordrhein-Westfalen;Deutschland;51.088220;7.515640;https://hofladen.info/hofladen/schaferhof-seb-karla-schafer
Gut Schmerwitz - Hofladen;Schmerwitz 8;14827;Wiesenburg;Brandenburg;Deutschland;52.139904;12.482903;https://hofladen.info/hofladen/gut-schmerwitz-hofladen
Oesehof Seifersdorf;Am Steinberg 1;1454;Wachau;Sachsen;Deutschland;51.157813;13.887460;https://hofladen.info/hofladen/oesehof-seifersdorf
Guidohof;Am Ullersberg 31;9212;Limbach Oberfrohna;Sachsen;Deutschland;50.881911;12.652457;https://hofladen.info/hofladen/guidohof
Eschenhof;Bärenbergstraße 1;34466;Altenhasungen;Hessen;Deutschland;51.342670;9.223420;https://hofladen.info/hofladen/eschenhof
Böhringer Obst;Mainhardter Str.23;74629;Untersteinbach;Baden-Württemberg;Deutschland;49.138602;9.571006;https://hofladen.info/hofladen/bohringer-obst
Hof Peter Soltau;Höfnerwinkel 15;29358;Eicklingen;Niedersachsen;Deutschland;52.560210;10.180020;https://hofladen.info/hofladen/hof-peter-soltau
Spargelhof Koenen;Heideweg 11;47623;Kevelaer;Nordrhein-Westfalen;Deutschland;51.582270;6.228457;https://hofladen.info/hofladen/spargelhof-koenen
Hofladen G.Rapp;Im Schollengarten 19b;76646;Untergrombach;Baden-Württemberg;Deutschland;49.096050;8.561330;https://hofladen.info/hofladen/hofladen-g-rapp
Meisterhonig Christine & Ivan Curic;In der Aue 10;37213;Witzenhausen;Hessen;Deutschland;51.338274;9.866100;https://hofladen.info/hofladen/meisterhonig-christine-ivan-curic
Weingut Weihbrecht.de;Hauptstr.20;74626;Bretzfeld;Baden-Württemberg;Deutschland;49.183064;9.404048;https://hofladen.info/hofladen/weingut-weihbrecht-de
Däuber´s Hof;Langenburger Str. 2;74542;Braunsbach;Baden-Württemberg;Deutschland;49.220910;9.795140;https://hofladen.info/hofladen/dauber%C2%B4s-hof
Wasserbüffelhof Warpe;Haus Nr. 9;27333;Warpe;Niedersachsen;Deutschland;53.793070;7.901690;https://hofladen.info/hofladen/wasserbuffelhof-warpe
Landkost Hofladen;Motzener Straße 111;15741;Bestensee;Brandenburg;Deutschland;52.224192;13.610114;https://hofladen.info/hofladen/landkost-hofladen
Täler Straussenfarm;Hellborn 29;07646;Renthendorf;Thüringen;Deutschland;50.814862;11.867233;https://hofladen.info/hofladen/taler-straussenfarm
Rümelinsmühle Murrhardt;Siegelsberger Str.23;71540;Murrhardt;Baden-Württemberg;Deutschland;48.982521;9.581380;https://hofladen.info/hofladen/rumelinsmuhle-murrhardt
Taubertaler Heimatladen;Mörickestraße 16;97990 ;Laudenbach;Baden-Württemberg;Deutschland;49.454459;9.933066;https://hofladen.info/hofladen/taubertaler-heimatladen
Hof Rudnick;Schmolte 10;49406;Drentwede;Niedersachsen;Deutschland;52.726590;8.555290;https://hofladen.info/hofladen/hof-rudnick
Schäferei Hullerbusch;Hullerbusch 2;17258;Feldberger Seenlandschaft;Mecklenburg-Vorpommern;Deutschland;53.321330;13.444240;https://hofladen.info/hofladen/schaferei-hullerbusch
Hofladen Gernewitz;Rausdorfer Straße 10;7646;Stadtroda;Thüringen;Deutschland;50.867882;11.693216;https://hofladen.info/hofladen/hofladen-gernewitz
Biohof Jacobi;Mühlentor 28;34434;Borgentreich - Körbecke;Nordrhein-Westfalen;Deutschland;51.535410;9.284390;https://hofladen.info/hofladen/biohof-jacobi
Erdbeerhof Nüstedt;Döhren 3;27211;Bassum;Niedersachsen;Deutschland;52.895404;8.729861;https://hofladen.info/hofladen/erdbeerhof-nustedt
Familie Wegner;Schwarzweiler 12;74670;Forchtenberg;Baden-Württemberg;Deutschland;49.270279;9.567786;https://hofladen.info/hofladen/familie-wegner
Stoffers Hoff;Im Dicken Ort 22;27283;Verden (Aller);Niedersachsen;Deutschland;52.907364;9.277905;https://hofladen.info/hofladen/stoffers-hoff
Windberghof;Windberghof;79837;St. Blasien;Baden-Württemberg;Deutschland;47.764200;8.108890;https://hofladen.info/hofladen/windberghof
Forellenhof Themar;Steinlache 4;98660;Themar;Thüringen;Deutschland;50.491431;10.632444;https://hofladen.info/hofladen/forellenhof-themar
Hof Röhrkasten;Höfen 17;31600;Uchte;Niedersachsen;Deutschland;52.473898;8.910849;https://hofladen.info/hofladen/hof-rohrkasten
Risstalimker Maier Bioland;Grotteweg 1;88433;Schemmerhofen;Baden-Württemberg;Deutschland;48.176402;9.796562;https://hofladen.info/hofladen/risstalimker-maier-bioland
Gärtnerei Ueckermünde;Reeperbahn 1;17373;Ueckermünde;Mecklenburg-Vorpommern;Deutschland;53.734920;14.034030;https://hofladen.info/hofladen/gartnerei-ueckermunde
Froschkönig;Profener Bahnhofstrasse 2;06728;Elsteraue;Sachsen-Anhalt;Deutschland;51.129220;12.215077;https://hofladen.info/hofladen/froschkonig
Winzerhof Gussek ;Kösener Straße 66 ;6618;Naumburg;Sachsen-Anhalt;Deutschland;51.151460;11.787502;https://hofladen.info/hofladen/winzerhof-gussek
Rixmanns Hof;Nauener Str. 23 a;16833;Linum;Brandenburg;Deutschland;52.758870;12.875300;https://hofladen.info/hofladen/rixmanns-hof
Naturhof Scherhag;Hauptstraße 84;56332;Dieblich/Mosel;Rheinland-Pfalz;Deutschland;50.315913;7.473606;https://hofladen.info/hofladen/naturhof-scherhag
Hof Neuheim;Neuheim 2;24376;Kappeln;Schleswig-Holstein;Deutschland;54.683220;9.914620;https://hofladen.info/hofladen/hof-neuheim
Bio Ranch Zempow;Birkenallee 12;16909;Wittstock;Brandenburg;Deutschland;53.212705;12.728837;https://hofladen.info/hofladen/bio-ranch-zempow
Straußenhof Scholz ;Stichelsdorfer Weg 24 ;6188;Landsberg;Sachsen-Anhalt;Deutschland;51.501435;12.035664;https://hofladen.info/hofladen/strau%C3%9Fenhof-scholz
Klaus und Sacha Marquardt;Biegelspfad 1 direkt neben dem Fürstengrabhügel;71735;Eberdingen;Baden-Württemberg;Deutschland;48.887972;9.008181;https://hofladen.info/hofladen/klaus-und-sacha-marquardt
Schäferei Schuster;Ostorfer Straße 2;39615;Beuster;Brandenburg;Deutschland;52.938184;11.790883;https://hofladen.info/hofladen/schaferei-schuster
Agrar- und Absatzgenossenschaft eG Naumburg;Hallesche Str. 73;06618;Naumburg;Sachsen-Anhalt;Deutschland;51.161760;11.820090;https://hofladen.info/hofladen/agrar-und-absatzgenossenschaft-eg-naumburg
Schafshofkäserei Clodramühle;Clodramühle 2;7980;Berga/Elster;Thüringen;Deutschland;50.759594;12.131404;https://hofladen.info/hofladen/schafshofkaserei-clodramuhle
Jungbauernhof;Dietenbach 3;79199;Kirchzarten;Baden-Württemberg;Deutschland;47.953740;7.945800;https://hofladen.info/hofladen/jungbauernhof
Lunser Landlädchen;Kirchweg 1;27321;Thedinghausen;Niedersachsen;Deutschland;52.968010;9.046830;https://hofladen.info/hofladen/lunser-landladchen
Feddersens Farm;Westerende 9;25885;Immenstedt;Schleswig-Holstein;Deutschland;54.538180;9.156910;https://hofladen.info/hofladen/feddersens-farm
Johannishof;Johannishof 1;66640;Namborn-Furschweiler;Saarland;Deutschland;49.514030;7.186010;https://hofladen.info/hofladen/johannishof
Kloster Pforta;Saalberge 73;06628;Bad Kösen;Sachsen-Anhalt;Deutschland;51.150990;11.731877;https://hofladen.info/hofladen/kloster-pforta
Hof Kley;Römerstraße 81;53332;Bornheim;Nordrhein-Westfalen;Deutschland;50.792014;7.027498;https://hofladen.info/hofladen/hof-kley
Hofladen Nestler;Thomas-Müntzer-Weg 1;8359;Breitenbrunn;Sachsen;Deutschland;50.473891;12.811276;https://hofladen.info/hofladen/hofladen-nestler
Frauenhofer;Langquaider Str. 4;84085 ;Langquaid;Bayern;Deutschland;48.786564;12.015621;https://hofladen.info/hofladen/frauenhofer
Voigt Baumschulen ;Raguhner Straße 14a ;6779;Priorau;Sachsen-Anhalt;Deutschland;51.730290;12.284850;https://hofladen.info/hofladen/voigt-baumschulen
Biomarkt Vorwerk Podemus;Podemuser Ring 1;1156;Dresden;Sachsen;Deutschland;51.060560;13.628343;https://hofladen.info/hofladen/biomarkt-vorwerk-podemus
Haußler Hinterespig;Hinterespig 5;74629;Pfedelbach;Baden-Württemberg;Deutschland;49.152290;9.519790;https://hofladen.info/hofladen/hau%C3%9Fler-hinterespig
Hofladen Quitzow;Buchholzer Chaussee 16;19348;Perleberg;Brandenburg;Deutschland;53.103435;11.835136;https://hofladen.info/hofladen/hofladen-quitzow
Obstkelterei Fläminggarten;Triftstraße 3;06895;Zahna;Sachsen-Anhalt;Deutschland;51.916206;12.784003;https://hofladen.info/hofladen/obstkelterei-flaminggarten
Hof Sackern;Albringhauser Str. 22;58300;Wetter;Nordrhein-Westfalen;Deutschland;51.375380;7.330470;https://hofladen.info/hofladen/hof-sackern
LDZ GmbH ;Siedlungsstraße 17a ;6231;Bad Dürrenberg;Sachsen-Anhalt;Deutschland;51.307647;12.071955;https://hofladen.info/hofladen/ldz-gmbh
Honigladen;Hauptstraße 5;9474;Crottendorf;Sachsen;Deutschland;50.534307;12.944380;https://hofladen.info/hofladen/honigladen
Rügener Inselfrische;Poseritz Hof 15;18574;Poseritz;Mecklenburg-Vorpommern;Deutschland;54.304771;13.272809;https://hofladen.info/hofladen/rugener-inselfrische-2
Klostergut auf dem Altstadtmarkt;Altstadtmarkt 1;38100;Braunschweig;Niedersachsen;Deutschland;52.262550;10.517870;https://hofladen.info/hofladen/klostergut-auf-dem-altstadtmarkt
Luisenhof Wiebendorf;Lange Straße 30;19258;Wiebendorf;Mecklenburg-Vorpommern;Deutschland;53.406581;10.816096;https://hofladen.info/hofladen/luisenhof-wiebendorf
Ziegenhof Lauterbach;Dorfstraße 110;1833;Stolpen;Sachsen;Deutschland;51.067180;14.128050;https://hofladen.info/hofladen/ziegenhof-lauterbach
Spargelhof Kalkofen;Cobbeler Mühlenstr. 4;39517;Tangerhütte;Sachsen-Anhalt;Deutschland;52.395233;11.862356;https://hofladen.info/hofladen/spargelhof-kalkofen
Kräuterwerkstatt;Zum Brunnenbiegel 8;74585;Rot am See;Baden-Württemberg;Deutschland;49.243810;9.969750;https://hofladen.info/hofladen/krauterwerkstatt
Spargelhof Meyer;Dorfstraße 46;31592;Stolzenau;Niedersachsen;Deutschland;52.520720;9.056910;https://hofladen.info/hofladen/spargelhof-meyer
Hof Zorn;An der Ganswiese 1;65321;Heidenrod;Hessen;Deutschland;50.163370;7.919160;https://hofladen.info/hofladen/hof-zorn
Hof Brandt;Schneeheide 1;29664 ;Walsrode;Niedersachsen;Deutschland;52.851352;9.550492;https://hofladen.info/hofladen/hof-brandt
Bauer Stolze;An der Kapelle 5 ;31311 ;Uetze;Niedersachsen;Deutschland;52.411770;10.137750;https://hofladen.info/hofladen/bauer-stolze
Bauckhof Amelinghausen;Triangel 2;21385;Amelinghausen;Niedersachsen;Deutschland;53.133650;10.219770;https://hofladen.info/hofladen/bauckhof-amelinghausen
Dahmer Landmilch;Kellenhusener Weg 26;23747;Dahme;Schleswig-Holstein;Deutschland;54.205120;11.078410;https://hofladen.info/hofladen/dahmer-landmilch
Ziegenhof Lauterbach;Dorfstraße 110 ;01833 ;Stolpen;Sachsen;Deutschland;51.067079;14.128531;https://hofladen.info/hofladen/ziegenhof-lauterbach-2
Hof Butendiek;Reitlander Strasse 1;26937;Seefeld;Niedersachsen;Deutschland;53.441910;8.338880;https://hofladen.info/hofladen/hof-butendiek
Weingut Keil;Altrenzener Weg 2;74629;Pfedelbach;Baden-Württemberg;Deutschland;49.149540;9.555850;https://hofladen.info/hofladen/weingut-keil
Hofladen Metz;Gaisbacher Str. 18;74632;Neuenstein;Baden-Württemberg;Deutschland;49.276679;9.688127;https://hofladen.info/hofladen/hofladen-metz
Husmanns Obstgärten;Sulinger Strasse 13;27246;Borstel;Niedersachsen;Deutschland;52.670147;8.969011;https://hofladen.info/hofladen/husmanns-obstgarten
Käserei Elisabethenhof;Elisabethenhof;35794;Probbach;Hessen;Deutschland;50.545940;8.200439;https://hofladen.info/hofladen/kaserei-elisabethenhof
Hofgut Pulsitz;Pulsitzer Hauptstraße 14;4749;Ostrau;Sachsen;Deutschland;51.216120;13.168590;https://hofladen.info/hofladen/hofgut-pulsitz
Hofladen Maas GbR;Kirchstr. 34;74544;Michelbach an der Bilz;Baden-Württemberg;Deutschland;49.067890;9.764269;https://hofladen.info/hofladen/hofladen-maas-gbr
Früchtehof Schindler;Warpe 21;27333;Warpe;Niedersachsen;Deutschland;52.735900;9.110730;https://hofladen.info/hofladen/fruchtehof-schindler
Wabenhonigimker Olaf Schacht;Dorfstraße 54;34298;Helsa;Hessen;Deutschland;51.219649;9.644643;https://hofladen.info/hofladen/wabenhonigimker-olaf-schacht
Hofladen Frank GbR;Steinbacher Weg 35;74653;Künzelsau;Baden-Württemberg;Deutschland;49.287300;9.709260;https://hofladen.info/hofladen/hofladen-frank-gbr
Familie Dangel;Dangelhof 1;89174;Altheim/Alb;Baden-Württemberg;Deutschland;48.570701;10.024990;https://hofladen.info/hofladen/familie-dangel
Hofladen und Cafe Lore Feindt ;Westerjork 57 ;21635;Jork;Niedersachsen;Deutschland;53.534930;9.670150;https://hofladen.info/hofladen/hofladen-und-cafe-lore-feindt
Lärchenhof;Lärchenhof 1;88633;Heiligenberg;Baden-Württemberg;Deutschland;47.829220;9.310350;https://hofladen.info/hofladen/larchenhof
Hardthof;Hardtweg 23;64385;Reichelsheim;Hessen;Deutschland;49.691160;8.813138;https://hofladen.info/hofladen/hardthof
Spargel Lüters; Visselhöveder Straße 14 ;29683 ;Bad Fallingbostel ;Niedersachsen;Deutschland;52.904935;9.758140;https://hofladen.info/hofladen/spargel-luters
Weingut Hofmann;Strüther Str.7;97285;Röttingen;Bayern;Deutschland;49.512800;9.967770;https://hofladen.info/hofladen/weingut-hofmann
Hof Zandershagen;Dorfstraße 20;18461;Richtenberg;Mecklenburg-Vorpommern;Deutschland;54.197030;12.919980;https://hofladen.info/hofladen/hof-zandershagen
Pankratiushof Mainz;Lindenplatz 6 ;55129 ;Mainz;Rheinland-Pfalz;Deutschland;49.960310;8.280537;https://hofladen.info/hofladen/pankratiushof-mainz
Biohof Kaemena;Niederblockland 6 2;28357;Bremen;Bremen;Deutschland;53.154428;8.838718;https://hofladen.info/hofladen/biohof-kaemena
Hofkäserei Klostersee;;23743;Grömitz;Schleswig-Holstein;Deutschland;54.186490;10.968820;https://hofladen.info/hofladen/hofkaserei-klostersee
Porschendorfer Mühle;Lindenstraße 17 ;01833 ;Dürrröhrsdorf-Dittersbach;Sachsen;Deutschland;51.012369;13.999027;https://hofladen.info/hofladen/porschendorfer-muhle
Agrarhandel Dürrenhofe Hofladen;Lübbener Str. 7a;15913;Märkische Heide;Brandenburg;Deutschland;52.022578;13.943309;https://hofladen.info/hofladen/agrarhandel-durrenhofe-hofladen
Weingut Gruber;Tannenhof 1;74182;Obersulm-Eschenau;Baden-Württemberg;Deutschland;49.136200;9.399030;https://hofladen.info/hofladen/weingut-gruber
Meyerdierks Hofladen;Moor­hau­ser Land­straße 33 ;28865;Lili­en­thal;Niedersachsen;Deutschland;53.153781;8.912653;https://hofladen.info/hofladen/meyerdierks-hofladen
Landwirtschaft Lindenhof;Hauptstr. 10;2829;Pfaffendorf;Sachsen;Deutschland;51.129460;14.904020;https://hofladen.info/hofladen/landwirtschaft-lindenhof
Kemppels;Baad 12/1;74535;Mainhardt;Baden-Württemberg;Deutschland;49.078054;9.557513;https://hofladen.info/hofladen/kemppels
Schafraffenland;Balzhofener Str. 21;77815;Bühl;Baden-Württemberg;Deutschland;48.712310;8.092030;https://hofladen.info/hofladen/schafraffenland
Martinshof Beck;;67373;Dudenhofen;Rheinland-Pfalz;Deutschland;49.316220;8.389352;https://hofladen.info/hofladen/martinshof-beck
Hof Bostel;Benzen 7;29664 ;Walsrode;Niedersachsen;Deutschland;52.833364;9.581356;https://hofladen.info/hofladen/hof-bostel
Brennerei Fritz Lösch;Adolzfurter Straße 33;74629;Pfedelbach-Windischenbach;Baden-Württemberg;Deutschland;49.180238;9.483753;https://hofladen.info/hofladen/brennerei-fritz-losch
Weingut Erich Hirth;Löwensteiner Str. 76;74182;Obersulm;Baden-Württemberg;Deutschland;49.130580;9.360340;https://hofladen.info/hofladen/weingut-erich-hirth
Gartenbau Hauke;Oskar von Arnim Straße 12;17291;Nordwestuckermark;Brandenburg;Deutschland;53.274088;13.688236;https://hofladen.info/hofladen/gartenbau-hauke
Gemüsebaubetrieb Spreewald Marcel Mich;Lübbenauer Str. 12;03222;Lübbenau;Brandenburg;Deutschland;51.869425;13.883366;https://hofladen.info/hofladen/gemusebaubetrieb-spreewald-marcel-mich
Kellerwaldhof;Heideweg 1;34596;Bad Zwesten;Hessen;Deutschland;51.029310;9.162170;https://hofladen.info/hofladen/kellerwaldhof
Röpers Hof;Am Kirchweg 6 ;27383 ;Scheeßel;Niedersachsen;Deutschland;53.128642;9.464701;https://hofladen.info/hofladen/ropers-hof-2
Arpshof;Am Schulberg 6 ;21279 ;Dierstorf;Niedersachsen;Deutschland;53.348046;9.759489;https://hofladen.info/hofladen/arpshof
Hennehof;Zur Abgunst 40;34388;Trendelburg;Hessen;Deutschland;51.583910;9.435430;https://hofladen.info/hofladen/hennehof
Hofgemeinschaft Fargemiel;Siggener Weg 2;23777;Fargemiel;Schleswig-Holstein;Deutschland;54.279530;11.032040;https://hofladen.info/hofladen/hofgemeinschaft-fargemiel
Spargel- & Erdbeerhof Hirsch;Oberach 2;65468;Trebur;Rheinland-Pfalz;Deutschland;49.922059;8.436438;https://hofladen.info/hofladen/spargel-erdbeerhof-hirsch
Capriolenhof;Schleusenhof Regow 1;16798;Fürstenberg;Brandenburg;Deutschland;53.131940;13.296760;https://hofladen.info/hofladen/capriolenhof
Milchtankstelle Schwante;Dorfstraße 1b;16727 ;Oberkrämer;Brandenburg;Deutschland;52.729782;13.092473;https://hofladen.info/hofladen/milchtankstelle-schwante
Brennerei Fritz-Martin Mozer;Lerchenhof 1;74629;Pfedelbach;Baden-Württemberg;Deutschland;49.173740;9.518520;https://hofladen.info/hofladen/brennerei-fritz-martin-mozer
Hof Kaemena;Gustav-Brandes-Weg 19;28355;Bremen;Bremen;Deutschland;53.108410;8.912300;https://hofladen.info/hofladen/hof-kaemena
Klosterhöfer Ziegenkäse;Gomfritz 3;36381;Schlüchtern;Hessen;Deutschland;50.385778;9.540698;https://hofladen.info/hofladen/klosterhofer-ziegenkase
Biolandhof Dicke Eiche;Dicke Eiche 9;49143;Bissendorf;Niedersachsen;Deutschland;52.278540;8.268150;https://hofladen.info/hofladen/biolandhof-dicke-eiche
Obstbau Schleicher;Hinterespig 9;74629;Pfedelbach;Baden-Württemberg;Deutschland;49.153301;9.520108;https://hofladen.info/hofladen/obstbau-schleicher
Pflanzenmarkt und Hofladen Hesse ;Calenberger Dorfstraße 1a ;39114;Magdeburg;Sachsen-Anhalt;Deutschland;52.065290;11.739470;https://hofladen.info/hofladen/pflanzenmarkt-und-hofladen-hesse
Auentalhof;Alte Landstraße 16;69488;Birkenau;Hessen;Deutschland;49.546305;8.764216;https://hofladen.info/hofladen/auentalhof
Gut Gamig;Gamig Nr 2;01809;Dohna;Sachsen;Deutschland;50.961629;13.842014;https://hofladen.info/hofladen/gut-gamig
Jesser Mühle;Neuenstadter Str.21;74239;Hardthausen - Kochersteinsfeld;Baden-Württemberg;Deutschland;49.240492;9.399277;https://hofladen.info/hofladen/jesser-muhle
Apfelgarten Meyer ;Fährdeich 18 ;21129;Hamburg;Hamburg;Deutschland;53.525950;9.801940;https://hofladen.info/hofladen/apfelgarten-meyer
Ernte mich;Großpösnaer Straße 71;4288;Leipzig;Sachsen;Deutschland;51.277258;12.479925;https://hofladen.info/hofladen/ernte-mich
Sunnehof;Lettenweg 12;79689;Maulburg;Baden-Württemberg;Deutschland;47.639817;7.780956;https://hofladen.info/hofladen/sunnehof
Elisabethhof;Goethestraße 9  ;14542 ;Werder(Havel);Brandenburg;Deutschland;52.348160;12.881150;https://hofladen.info/hofladen/elisabethhof
Kellers Hofladen;Harrbacher Weg 41;97753;Karlstadt;Bayern;Deutschland;49.994190;9.730790;https://hofladen.info/hofladen/kellers-hofladen
Straußenfarm Helmsdorf;Ziegeleistraße 4;01833 ;Stolpen;Sachsen;Deutschland;51.026682;14.032708;https://hofladen.info/hofladen/strau%C3%9Fenfarm-helmsdorf
Sternhof;Weikersholz 8;74585;Rot am See;Baden-Württemberg;Deutschland;49.251290;10.108178;https://hofladen.info/hofladen/sternhof
Waldziegenhof;Schloßstraße 19;89446;Ziertheim;Bayern;Deutschland;48.650990;10.396800;https://hofladen.info/hofladen/waldziegenhof
Hofladen Schloß Eichicht ;Schloßstraße 1;07338;Kaulsdorf ;Thüringen;Deutschland;50.607902;11.440252;https://hofladen.info/hofladen/hofladen-schlo%C3%9F-eichicht
Ziegenhof Ems-Aue;Kurtstr. 8;34560;Fritzlar;Hessen;Deutschland;51.159886;9.264043;https://hofladen.info/hofladen/ziegenhof-ems-aue
Spargelhof Kremmen;Groß-Ziethener Weg 2;16766;Kremmen;Brandenburg;Deutschland;52.755949;13.033614;https://hofladen.info/hofladen/spargelhof-kremmen
Mennes Nieheimer Schaukäserei;Hospitalstraße 22;33039;Nieheim;Nordrhein-Westfalen;Deutschland;51.803390;9.103550;https://hofladen.info/hofladen/mennes-nieheimer-schaukaserei
Weingut Ungerer;Harsberger Str. 15;74629;Pfedelbach;Baden-Württemberg;Deutschland;49.147460;9.551540;https://hofladen.info/hofladen/weingut-ungerer
Spargelhof Genter;Tannenallee 8;38528;Adenbüttel;Niedersachsen;Deutschland;52.399206;10.433668;https://hofladen.info/hofladen/spargelhof-genter
Franken-Genuss;Gonnersdorf 6;90556 ;Cadolzburg;Bayern;Deutschland;49.464897;10.820451;https://hofladen.info/hofladen/franken-genuss
Hofladen Wiedemann;Breite Straße 1;38159 ;Vechelde;Niedersachsen;Deutschland;52.258161;10.339761;https://hofladen.info/hofladen/hofladen-wiedemann
Arche Warder;Langwedeler Weg 11;24646 ;Warder;Schleswig-Holstein;Deutschland;54.217864;9.906339;https://hofladen.info/hofladen/arche-warder
Edelrot;Hausen 2;41751;Viersen;Nordrhein-Westfalen;Deutschland;51.229753;6.344151;https://hofladen.info/hofladen/edelrot
Johns Hofladen;Tuchenbacher Str. 9;90587 ;Veitsbronn;Bayern;Deutschland;49.512777;10.883561;https://hofladen.info/hofladen/johns-hofladen
Hof Stolze Kuh;Weinbergstraße 6a;16248;Lunow;Brandenburg;Deutschland;52.945482;14.100840;https://hofladen.info/hofladen/hof-stolze-kuh
Obsthof Drechsle;Feldbergstrasse 22;79639;Grenzach-Wyhlen;Baden-Württemberg;Deutschland;47.567811;7.705064;https://hofladen.info/hofladen/obsthof-drechsle
Jambo Straußenfarm;Kreblitzer Straße 3;15926;Luckau;Brandenburg;Deutschland;51.903850;13.689837;https://hofladen.info/hofladen/jambo-strau%C3%9Fenfarm
Erdbeer-& Spargelhof Böser;Kurze Allee 1;76694/Baden;Forst;Baden-Württemberg;Deutschland;49.141286;8.576110;https://hofladen.info/hofladen/erdbeer-spargelhof-boser
Hof Schröder;Donnerstedter Dorfstr. 2;27321;Thedinghausen;Niedersachsen;Deutschland;52.964285;8.973801;https://hofladen.info/hofladen/hof-schroder
Regionalmarkt Hohenlohe;Birkichstr. 10;74549;Wolpertshausen;Baden-Württemberg;Deutschland;49.169313;9.859870;https://hofladen.info/hofladen/regionalmarkt-hohenlohe
Weingut Krebs;Birkenweg 48;79589;Binzen;Baden-Württemberg;Deutschland;47.633940;7.611742;https://hofladen.info/hofladen/weingut-krebs
Rahlf;Mehrower Dorfstraße 1;16356;Ahrensfelde;Brandenburg;Deutschland;52.570797;13.614465;https://hofladen.info/hofladen/rahlf
Fischland Scharmützelsee;Schwarzhorner Weg 26;15864;Wendisch Rietz;Brandenburg;Deutschland;52.220800;14.016334;https://hofladen.info/hofladen/fischland-scharmutzelsee
Milchschafhof-Schafgarbe;Ogrosener Dorfstraße 35;3226;Vetschau;Brandenburg;Deutschland;51.711900;14.040980;https://hofladen.info/hofladen/milchschafhof-schafgarbe
Hofladen Gerbitz;Hauptstraße 17;6429;Nienburg/Saale;Sachsen-Anhalt;Deutschland;51.841606;11.826253;https://hofladen.info/hofladen/hofladen-gerbitz
Kräutergärtnerei Helenion;Kleine Straße 2a;17291;Grünow;Brandenburg;Deutschland;53.318240;13.948710;https://hofladen.info/hofladen/krautergartnerei-helenion
Heilbronner- Land-Honig Adolf Fritz;Eschenbachstr.24;74078;Heilbronn;Baden-Württemberg;Deutschland;49.190620;9.144400;https://hofladen.info/hofladen/heilbronner-land-honig-adolf-fritz
Halder macht Bio;Hauptstraße 18;88374;Hoßkirch;Baden-Württemberg;Deutschland;47.940879;9.445284;https://hofladen.info/hofladen/halder-macht-bio
Hofladen Hohnhorst;Hauptstr. 25 ;31559 ;Nenndorf;Niedersachsen;Deutschland;52.368518;9.372931;https://hofladen.info/hofladen/hofladen-hohnhorst
Silvis Hofladen ;Harbrookweg 3 100 m In den Harbrookweg, direkt von der L76 ab;25494;Borstel Hohenraden;Schleswig-Holstein;Deutschland;53.702189;9.831526;https://hofladen.info/hofladen/silvis-hofladen
Sommers Hofladen;Hölderlinstr. 9;74257;Untereisesheim;Baden-Württemberg;Deutschland;49.208862;9.197167;https://hofladen.info/hofladen/sommers-hofladen
Obsthof Hauschildt ;Westerladekop 1 ;21635;Jork;Niedersachsen;Deutschland;53.518440;9.670540;https://hofladen.info/hofladen/obsthof-hauschildt
Bauer Lange;Lieschow Hof Nr. 37;18569;Ummanz;Mecklenburg-Vorpommern;Deutschland;54.436090;13.180370;https://hofladen.info/hofladen/bauer-lange
Müritzhof Knust;Dorfstraße 9;17192;Klink-Sembzin;Mecklenburg-Vorpommern;Deutschland;53.463410;12.606670;https://hofladen.info/hofladen/muritzhof-knust
Ritters Gemüsekiste;Mühlenbachweg 6;21227;Bendestorf;Niedersachsen;Deutschland;53.330090;9.982446;https://hofladen.info/hofladen/ritters-gemusekiste
Körners Hofladen GbR;Herrgottsruhstr. 4 ;86316 ;Friedberg;Bayern;Deutschland;48.355538;10.985889;https://hofladen.info/hofladen/korners-hofladen-gbr
Kedenburgs Schweinerei;Hintzendorf-Stellenfelde 45;28870;Ottersberg;Niedersachsen;Deutschland;53.035620;9.186980;https://hofladen.info/hofladen/kedenburgs-schweinerei
Neuenhof;Niederdorfer-Str. 85;47638;Straelen;Nordrhein-Westfalen;Deutschland;51.381766;6.221779;https://hofladen.info/hofladen/neuenhof
Weingut Gaufer;Mariannenstr. 24;74653;Ingelfingen;Baden-Württemberg;Deutschland;49.299785;9.656159;https://hofladen.info/hofladen/weingut-gaufer
Hohenloher Ziegensalami;Hornungshof 3;74575;Schrozberg;Baden-Württemberg;Deutschland;49.354109;9.889160;https://hofladen.info/hofladen/hohenloher-ziegensalami
Gärtnerei Koblentz;Dorfstraße 14;17309;Koblentz;Mecklenburg-Vorpommern;Deutschland;53.525630;14.135110;https://hofladen.info/hofladen/gartnerei-koblentz
Blütenzauber Manufaktur;Alte Steige 14;74595;Langenburg;Baden-Württemberg;Deutschland;49.246356;9.852060;https://hofladen.info/hofladen/blutenzauber-manufaktur
Vogelsberger-Stutenmilch Manufaktur;Hüttengasse 2;74653;Künzelsau;Baden-Württemberg;Deutschland;49.261825;9.786453;https://hofladen.info/hofladen/vogelsberger-stutenmilch-manufaktur
Hofladen der Landfrauen in Leezen;Schlossstr. 4d;19067 ;Leezen;Mecklenburg-Vorpommern;Deutschland;53.660985;11.498766;https://hofladen.info/hofladen/hofladen-der-landfrauen-in-leezen
Kurz Bauernhof;Rechentshofer Str. 24;74343;Sachsenheim;Baden-Württemberg;Deutschland;48.992920;9.024789;https://hofladen.info/hofladen/kurz-bauernhof
Schafhof Landwehr;Landwehr 21;15938;Golßen;Brandenburg;Deutschland;51.961810;13.588970;https://hofladen.info/hofladen/schafhof-landwehr
Scheeper Phil;Wenddorf 11;23749;Grube i.H.;Schleswig-Holstein;Deutschland;54.234559;11.037657;https://hofladen.info/hofladen/scheeper-phil
Kürbishof Cordes;Heisterweg 2;27308;Kirchlinteln;Niedersachsen;Deutschland;52.877706;9.309287;https://hofladen.info/hofladen/kurbishof-cordes
Sonnenhof;Astwiesen 2;73087;Bad Boll;Baden-Württemberg;Deutschland;48.645210;9.600070;https://hofladen.info/hofladen/sonnenhof
Trebnitzer Beeren- und Straußenhof ;Birkenweg 6 ;6722;Wetterzeube;Sachsen-Anhalt;Deutschland;50.998480;11.983920;https://hofladen.info/hofladen/trebnitzer-beeren-und-strau%C3%9Fenhof
Nickis Bio-Hofladen;Siedlungsstraße 6;01471 ;Radeburg;Sachsen;Deutschland;51.187599;13.721160;https://hofladen.info/hofladen/nickis-bio-hofladen
Lepkeshof;Mühlenstraße 128;46047;Oberhausen;Nordrhein-Westfalen;Deutschland;51.472223;6.898647;https://hofladen.info/hofladen/lepkeshof
Grüne Oase GmbH;Zur Grünen Oase 1;14656;Brieselang;Brandenburg;Deutschland;52.589345;12.918014;https://hofladen.info/hofladen/grune-oase-gmbh
Vielfruchthof Domstiftsgut Mötzow;Gutshof 1;14778;Beetzseeheide;Brandenburg;Deutschland;52.463790;12.591530;https://hofladen.info/hofladen/vielfruchthof-domstiftsgut-motzow
Hof Luna;Im Siek 10;31084;Freden;Niedersachsen;Deutschland;51.948900;9.917290;https://hofladen.info/hofladen/hof-luna
Hof Ziegelhütte;Ziegelhütte 1/1;73266;Bissingen;Baden-Württemberg;Deutschland;48.570150;9.527020;https://hofladen.info/hofladen/hof-ziegelhutte
Milchhof Zinna;Am Anger 7;4860;Torgau;Sachsen;Deutschland;51.569920;12.954220;https://hofladen.info/hofladen/milchhof-zinna
Ziegenhof Loretto;Loretto 6;88529;Zwiefalten;Baden-Württemberg;Deutschland;48.249980;9.461130;https://hofladen.info/hofladen/ziegenhof-loretto
Gut Sambach;Gutsstrasse 1;99974;Mühlhausen;Thüringen;Deutschland;51.223330;10.420480;https://hofladen.info/hofladen/gut-sambach
Gut Wulfsdorf;Bornskampweg 39;22926;Ahrensburg;Schleswig-Holstein;Deutschland;53.659180;10.192540;https://hofladen.info/hofladen/gut-wulfsdorf
Tante Hedwig;Wiesenweg 8;18565;Vitte/Hiddensee;Mecklenburg-Vorpommern;Deutschland;54.568050;13.106170;https://hofladen.info/hofladen/tante-hedwig
Siebengiebelhof;Alte Dorfstraße 10;19376;Drenkow;Mecklenburg-Vorpommern;Deutschland;53.316810;12.007170;https://hofladen.info/hofladen/siebengiebelhof
Milchschafhof Solterbeck;Sorgwohld 10;24811;Owschlag;Schleswig-Holstein;Deutschland;54.355810;9.571950;https://hofladen.info/hofladen/milchschafhof-solterbeck
Obsthof Lefers;Osterjork 140 ;21635;Jork;Niedersachsen;Deutschland;53.525950;9.705940;https://hofladen.info/hofladen/obsthof-lefers
Hof Schwalbennest;Pehlitz 3;16230;Chorin;Brandenburg;Deutschland;52.909380;13.993550;https://hofladen.info/hofladen/hof-schwalbennest
Hofgemeinschaft Weide-Hardebek;Hauptstraße 32–34  ;24616 ;Hardebek;Schleswig-Holstein;Deutschland;53.988726;9.872614;https://hofladen.info/hofladen/hofgemeinschaft-weide-hardebek
Landgut Nemt;Am Wachtelberg 18;4808;Wurzen;Sachsen;Deutschland;51.351640;12.733780;https://hofladen.info/hofladen/landgut-nemt
Mühle-Lemke-Hofladen;Mühlenstraße 7;15378;Hennickendorf;Brandenburg;Deutschland;52.514079;13.851933;https://hofladen.info/hofladen/muhle-lemke-hofladen
Fischer Zahn;Am Bollwerk 15;16303;Schwedt;Brandenburg;Deutschland;53.053269;14.287966;https://hofladen.info/hofladen/fischer-zahn
Hof und Höfle;Weilerstraße 42;73061;Ebersbach;Baden-Württemberg;Deutschland;48.703310;9.504650;https://hofladen.info/hofladen/hof-und-hofle
Biolandhof Klischewski;Loch 1;91235;Hartenstein;Bayern;Deutschland;49.566800;11.537040;https://hofladen.info/hofladen/biolandhof-klischewski
Biohof Tacke;Kletziner Str. 1a;23972;Dorf Mecklenburg;Mecklenburg-Vorpommern;Deutschland;53.843240;11.474120;https://hofladen.info/hofladen/biohof-tacke
Landhof „Am Ziegenried“;Dosdorf 63;99310;Arnstadt;Thüringen;Deutschland;50.791890;10.915280;https://hofladen.info/hofladen/landhof-%E2%80%9Eam-ziegenried%E2%80%9C
Bauernhof Steffen Kühne;Altomsewitz 2;1157;Dresden;Sachsen;Deutschland;51.057931;13.660733;https://hofladen.info/hofladen/bauernhof-steffen-kuhne
Spessarthof;Gasse 10a;97773;Aura;Bayern;Deutschland;50.179110;9.572960;https://hofladen.info/hofladen/spessarthof
Altschulzenhof;Lautertalstr.50;72534;Hayingen-Münzdorf;Baden-Württemberg;Deutschland;48.308300;9.480360;https://hofladen.info/hofladen/altschulzenhof
Wildmanufaktur;Schulstrasse 1a;19399;Dobbertin;Mecklenburg-Vorpommern;Deutschland;53.622560;12.072730;https://hofladen.info/hofladen/wildmanufaktur
Engelnhof;Lerchenweg 12;26871;Papenburg;Niedersachsen;Deutschland;53.049600;7.427370;https://hofladen.info/hofladen/engelnhof
Biohof Ottilie;Ort 19 ;21720;Mittelnkirchen;Niedersachsen;Deutschland;53.560390;9.610800;https://hofladen.info/hofladen/biohof-ottilie
Gärtnerei Hagedorn;Hohe Straße 12;17255;Wesenberg;Mecklenburg-Vorpommern;Deutschland;53.280908;12.969501;https://hofladen.info/hofladen/gartnerei-hagedorn
Obsthof Am Süßen See ;Am Seefeld 1 ;6317;Seegebiet Mansfelder Land;Sachsen-Anhalt;Deutschland;51.496580;11.659090;https://hofladen.info/hofladen/obsthof-am-su%C3%9Fen-see
Hofladen Bähr;Dorfstraße 25a;99334;Rehestädt;Thüringen;Deutschland;50.870130;10.925100;https://hofladen.info/hofladen/hofladen-bahr
Westerhäuser Käsehof ;Unter dem Mühlenberg 410 ;6484;Westerhausen;Sachsen-Anhalt;Deutschland;51.802330;11.049962;https://hofladen.info/hofladen/westerhauser-kasehof-2
Weinhof Dieroff;Brunnengasse 17/3;74613;Öhringen;Baden-Württemberg;Deutschland;49.175739;9.554371;https://hofladen.info/hofladen/weinhof-dieroff
Hofladen Wittingen-Darrigsdorf;Darrigsdorf 7;29378;Wittingen;Niedersachsen;Deutschland;52.734028;10.700974;https://hofladen.info/hofladen/hofladen-wittingen-darrigsdorf
Biohof Schumacher;Deichstraße 1;27321;Emtinghausen;Niedersachsen;Deutschland;52.928200;8.982050;https://hofladen.info/hofladen/biohof-schumacher
